{"campsites":[{"name":"Gilwell Park Scout Activity Centre","lat":51.65035,"lng":0.00191,"desc":"Campsite.","_score":17,"url":"https://www.scoutadventures.org.uk/centre/gilwell-park"},{"name":"Clent Hills Camping and Caravanning Club Site","lat":52.41115,"lng":-2.06811,"desc":"tents and caravans, electric hookup, Wi-Fi.","_score":16},{"name":"L'Aiguille Creuse","lat":49.69783,"lng":0.27587,"desc":"135 pitches, Wi-Fi.","_score":14,"url":"https://www.campingaiguillecreuse.com/"},{"name":"Badgells Wood Camping","lat":51.33349,"lng":0.38477,"desc":"tents welcome, showers.","_score":14,"url":"https://badgellswoodcamping.co.uk/"},{"name":"Market Rasen Racecourse","lat":53.37931,"lng":-0.31493,"desc":"Campsite.","_score":13},{"name":"Camping Côte de Nacre","lat":49.32503,"lng":-0.39076,"desc":"tents and caravans.","_score":11,"url":"https://www.sandaya.fr/nos-campings/cote-de-nacre"},{"name":"Camping La Capricieuse","lat":49.31828,"lng":-0.35934,"desc":"tents and caravans.","_score":11,"url":"https://www.yellohvillage-lacapricieuse.com"},{"name":"Cuckoo Fen Campsite","lat":52.3249,"lng":0.02605,"desc":"tents welcome, showers.","_score":11,"url":"https://www.cuckoofen.co.uk"},{"name":"Ardelve Caravan And Camping Park","lat":57.28212,"lng":-5.52595,"desc":"showers.","_score":9,"url":"https://www.ardelvecaravanandcampingpark.com/"},{"name":"Passaford Meadow Campsite","lat":50.81365,"lng":-4.07368,"desc":"tents and caravans, showers.","_score":9,"url":"https://www.facebook.com/passafordmeadowcampsite/"},{"name":"Mill Farm Country Park","lat":53.98122,"lng":-0.21774,"desc":"tents and caravans, electric hookup.","_score":9,"url":"https://www.millfarmcountrypark.co.uk/"},{"name":"Le Champ Neuf","lat":50.26679,"lng":1.60237,"desc":"tents and caravans, showers.","_score":9,"url":"https://www.camping-lechampneuf.com/"},{"name":"Camping Sainte-Claire","lat":49.73676,"lng":1.42835,"desc":"100 pitches, tents and caravans, electric hookup, showers.","_score":9,"url":"http://camping-sainteclaire.com"},{"name":"Meadow Falls","lat":54.15526,"lng":-2.4819,"desc":"tents and caravans.","_score":9,"url":"https://www.meadowfalls.co.uk/"},{"name":"Alltycoed Campsite","lat":52.11112,"lng":-4.72573,"desc":"tents and caravans, Wi-Fi, showers.","_score":9,"url":"http://www.alltycoed.co.uk"},{"name":"Conwy Holiday Park","lat":53.26386,"lng":-3.83143,"desc":"tents and caravans, electric hookup, Wi-Fi.","_score":9,"url":"https://www.conwyholidaypark.co.uk/"},{"name":"Park Farm Camping","lat":50.99275,"lng":0.51769,"desc":"tents and caravans.","_score":9,"url":"https://parkfarmcamping.co.uk/"},{"name":"Parc Cwm Darran Camp Site","lat":51.7239,"lng":-3.28458,"desc":"tents and caravans, electric hookup.","_score":9,"url":"https://greenspacescaerphilly.co.uk/campsites"},{"name":"Camping de La Miniere","lat":49.60773,"lng":1.54275,"desc":"tents and caravans.","_score":9,"url":"http://www.campingforges.com/fr/bienvenue-a-la-miniere"},{"name":"Norfolk Brickyard","lat":52.95003,"lng":0.76922,"desc":"Campsite.","_score":9,"url":"https://www.norfolkbrickyard.co.uk/"},{"name":"North Rhinns Camping","lat":54.94034,"lng":-5.13199,"desc":"tents and caravans, showers.","_score":9,"url":"https://northrhinnscamping.co.uk"},{"name":"Camping & Espace Loisirs Pierre Soismier","lat":49.28827,"lng":-0.13461,"desc":"tents and caravans, electric hookup, showers.","_score":9,"url":"https://www.campingsoismiercabourg.com/"},{"name":"Beech Estate Campsite","lat":50.92293,"lng":0.43688,"desc":"tents welcome, showers.","_score":9,"url":"https://www.pegsandpitches.co.uk/"},{"name":"Coilessan camping permit area March-September","lat":56.17535,"lng":-4.79347,"desc":"tents welcome.","_score":9,"url":"https://www.lochlomond-trossachs.org/things-to-do/camping/get-a-permit/"},{"name":"Nether Oaks Camping","lat":52.21369,"lng":1.38825,"desc":"tents welcome, showers.","_score":9,"url":"https://nether-oaks.co.uk/"},{"name":"Bivouac Halte Cycliste de Dampierre-en-Bray","lat":49.53241,"lng":1.65919,"desc":"tents welcome, electric hookup.","_score":9,"url":"https://www.dampierreenbray.fr/activit%C3%A9s-%C3%A9conomiques-et-touristiques/tourisme/"},{"name":"Camping communal de Sainte-Mère-Église","lat":49.40891,"lng":-1.31023,"desc":"electric hookup, Wi-Fi, showers.","_score":8,"url":"https://camping-sainte-mere.fr/"},{"name":"Middle Stone Farm Glamping","lat":51.07425,"lng":-3.29628,"desc":"Campsite.","_score":8,"url":"https://www.middlestonefarm.com/"},{"name":"Middle Stone Farm Glamping","lat":51.07403,"lng":-3.29852,"desc":"Campsite.","_score":8,"url":"https://www.middlestonefarm.com/"},{"name":"Lough Dan Scout Centre","lat":53.06016,"lng":-6.2756,"desc":"Campsite.","_score":8},{"name":"Deepdale Camping & Rooms","lat":52.96451,"lng":0.6829,"desc":"tents and caravans, Wi-Fi, showers.","_score":8,"url":"https://deepdalecamping.co.uk/camping/"},{"name":"Southdown Way Caravan & Camping Park","lat":50.91627,"lng":-0.13223,"desc":"tents and caravans, electric hookup.","_score":7,"url":"https://www.southdown-caravancamping.org.uk/"},{"name":"Welsummer Camping","lat":51.2229,"lng":0.67318,"desc":"tents welcome.","_score":7,"url":"https://www.welsummercamping.com/"},{"name":"Quarry Lodge Camping","lat":51.87813,"lng":-4.22999,"desc":"Campsite.","_score":7,"url":"http://www.quarrylodgecamping.co.uk/"},{"name":"Château de Mesnières","lat":49.76278,"lng":1.38244,"desc":"Campsite.","_score":7,"url":"https://www.chateau-mesnieres-76.com/hebergement-chateaumesnieres.html"},{"name":"I.C. Art","lat":49.67457,"lng":1.42456,"desc":"4 pitches, tents welcome.","_score":7,"url":"http://i.c.art.free.fr/index.php/hebergement"},{"name":"Escape Pods","lat":52.41847,"lng":0.8628,"desc":"Campsite.","_score":7,"url":"https://escapepods.co.uk/"},{"name":"Red Rock Adventure Camp","lat":50.60941,"lng":-3.38587,"desc":"tents welcome.","_score":7,"url":"https://www.exmouthwatersports.co.uk/junior-activities"},{"name":"Gosfield Lake Resort","lat":51.93527,"lng":0.57904,"desc":"tents and caravans, showers.","_score":7,"url":"https://gosfieldlake.co.uk/"},{"name":"Blackwell Adventure Outdoor Activity Centre","lat":52.34307,"lng":-2.01292,"desc":"Wi-Fi.","_score":7,"url":"https://www.blackwelladventure.co.uk/"},{"name":"Camping de la Forêt","lat":49.43438,"lng":0.83003,"desc":"110 pitches.","_score":7,"url":"https://www.campinglaforet.com"},{"name":"Bayview campsite","lat":58.52921,"lng":-4.43198,"desc":"tents and caravans, showers.","_score":7,"url":"https://www.bayviewcampsite.co.uk"},{"name":"Camping naturistes rouennais La Chesnaie","lat":49.44568,"lng":0.8926,"desc":"Campsite.","_score":7,"url":"https://www.campingnaturistelachenaie.com/"},{"name":"Condovers Scout Activity Centre","lat":51.47258,"lng":0.3964,"desc":"Campsite.","_score":7,"url":"http://www.condovers.org.uk"},{"name":"Pondside Camping & Accommodation","lat":58.0634,"lng":-4.42661,"desc":"tents welcome, Wi-Fi, showers.","_score":7,"url":"https://www.pondside.co.uk"},{"name":"Aire naturelle de l'Oraille","lat":49.48713,"lng":-1.56872,"desc":"25 pitches.","_score":7,"url":"https://sites.google.com/site/campingloraille/"},{"name":"La Bucaille","lat":49.27314,"lng":-1.5586,"desc":"6 pitches, electric hookup.","_score":7,"url":"https://labucaille.com/"},{"name":"Bounds Campsite","lat":52.17821,"lng":0.2202,"desc":"tents and caravans, showers.","_score":7,"url":"https://www.boundscampsite.co.uk/"},{"name":"Prospect House Farm Campsite","lat":54.30534,"lng":-0.47491,"desc":"showers.","_score":7,"url":"https://www.prospecthousefarmcampsite.co.uk/"},{"name":"Glamping at Lodge Farm","lat":51.83477,"lng":1.16834,"desc":"showers.","_score":7,"url":"https://glampingatlodgefarm.com"},{"name":"Newcourt Farm Campsite","lat":52.02389,"lng":-3.17503,"desc":"tents welcome.","_score":7,"url":"https://www.newcourt-campsite.co.uk"},{"name":"Walesby Woodlands","lat":53.40235,"lng":-0.3215,"desc":"tents welcome, electric hookup, showers.","_score":6,"url":"https://www.walesbywoodlands.co.uk/"},{"name":"Tigh na Mara","lat":56.92397,"lng":-5.87166,"desc":"Campsite.","_score":6,"url":"http://tigh-na-maracampsitepods.co.uk"},{"name":"Loch Ness Bay Camping","lat":57.32858,"lng":-4.46717,"desc":"tents and caravans, electric hookup, Wi-Fi, showers.","_score":6,"url":"https://www.borlum.co.uk/Camping/Campsite.html"},{"name":"Kingsdown International Camping Centre","lat":51.1823,"lng":1.39995,"desc":"tents and caravans, electric hookup, Wi-Fi, showers.","_score":6,"url":"https://www.kingsdowncamping.co.uk"},{"name":"Coldblow Farm","lat":51.29243,"lng":0.61109,"desc":"tents welcome, electric hookup, showers.","_score":6,"url":"https://www.coldblowfarm.co.uk/camping"},{"name":"Glenshee Glamping","lat":56.72969,"lng":-3.3815,"desc":"tents welcome, showers.","_score":6,"url":"https://glensheeglamping.co.uk/"},{"name":"Camping Municipal de L’aulnaie","lat":49.25579,"lng":1.70216,"desc":"tents and caravans, electric hookup, Wi-Fi, showers.","_score":6,"url":"https://www.campingdelaulnaie.com"},{"name":"Pit Hill Farm Campsite.","lat":50.91734,"lng":-1.06754,"desc":"Campsite.","_score":6,"url":"https://www.campingandcaravanningclub.co.uk/campsites/uk/hampshire/denmead/pithillfarm"},{"name":"Danemead Scout Campsite","lat":51.75181,"lng":-0.05177,"desc":"tents welcome, Wi-Fi, showers.","_score":6,"url":"https://danemeadcampsite.org.uk/"},{"name":"MacDonald Hotel Campsite","lat":56.7159,"lng":-4.97158,"desc":"tents welcome.","_score":6,"url":"https://macdonaldhotel.co.uk/cabins-camping/"},{"name":"La Ferme du Lavoir","lat":49.34077,"lng":-0.89651,"desc":"10 pitches, tents and caravans, electric hookup, Wi-Fi.","_score":6,"url":"https://www.fermedulavoir.fr/fr/camping-fr.php"},{"name":"Treseissyllt Farm Campsite","lat":51.97841,"lng":-5.07284,"desc":"40 pitches, Wi-Fi.","_score":6,"url":"http://www.coastal-camping.wales"},{"name":"Caalm Camp","lat":50.98513,"lng":-2.2683,"desc":"Campsite.","_score":6,"url":"https://dorsetyurtcampsite.co.uk/"},{"name":"Huntstile organic farm","lat":51.09854,"lng":-3.04973,"desc":"Campsite.","_score":6,"url":"https://www.huntstileorganicfarm.co.uk/"},{"name":"The T Barn","lat":51.74413,"lng":-1.90166,"desc":"tents welcome.","_score":6,"url":"https://www.pitchup.com/campsites/England/Central/Gloucestershire/Cirencester/t-barn/"},{"name":"The Wildman Woods Campsite","lat":51.90277,"lng":-3.76414,"desc":"tents welcome, showers.","_score":6,"url":"http://www.thewildmanwoods.com/"},{"name":"The Private Hill","lat":54.04752,"lng":-0.79406,"desc":"Campsite.","_score":6,"url":"https://www.theprivatehill.co.uk"},{"name":"Gîte Baie et Bocage","lat":49.34529,"lng":-1.08569,"desc":"tents and caravans, showers.","_score":6,"url":"https://gite-normandie-baie-bocage.com/wpage/1BF2EB8B/camping-a-la-ferme-normandie.html"},{"name":"South Nesting","lat":60.26343,"lng":-1.15654,"desc":"tents and caravans, electric hookup, Wi-Fi, showers.","_score":6,"url":"https://www.southnestinghall.co.uk/caravan-park/"},{"name":"Three Hares Campsite","lat":50.71141,"lng":-3.81488,"desc":"tents welcome, electric hookup, showers.","_score":6,"url":"https://www.threeharescampsite.co.uk/"},{"name":"Loch Chon Campsite","lat":56.2085,"lng":-4.53564,"desc":"tents welcome.","_score":6,"url":"https://www.lochlomond-trossachs.org/things-to-do/camping/find-a-campsite/loch-chon-campsite/"},{"name":"YHA Castleton Losehill Hall","lat":53.35002,"lng":-1.77073,"desc":"tents welcome, Wi-Fi.","_score":6,"url":"https://www.yha.org.uk/hostel/yha-castleton-losehill-hall"},{"name":"Meadow Camping","lat":56.12271,"lng":-5.50193,"desc":"tents welcome.","_score":6},{"name":"Clifftop camping at Spiders Castle Farm","lat":51.41997,"lng":0.85913,"desc":"tents and caravans.","_score":6,"url":"https://www.clifftopcamping.co.uk/"},{"name":"Annstead Farm","lat":55.5677,"lng":-1.64713,"desc":"Campsite.","_score":6,"url":"http://www.annsteadholidaycottages.co.uk/"},{"name":"YHA South Downs","lat":50.83127,"lng":0.03334,"desc":"Wi-Fi.","_score":6,"url":"https://www.yha.org.uk/hostel/yha-south-downs"},{"name":"Forest Road Camping","lat":51.8722,"lng":-2.4109,"desc":"Campsite.","_score":6,"url":"https://huntley-glos.co.uk/"},{"name":"Ffynonwen","lat":52.16159,"lng":-4.40696,"desc":"Campsite.","_score":6,"url":"https://ffynnonwen.com/"},{"name":"Bromptons Farm","lat":52.31658,"lng":0.88321,"desc":"electric hookup, Wi-Fi, showers.","_score":6,"url":"https://www.bromptonsfarm.com/"},{"name":"Otter Pool \"Stay the night\"","lat":55.03714,"lng":-4.20189,"desc":"Campsite.","_score":6,"url":"https://forestryandland.gov.scot/visit/forest-parks/galloway-forest-park/raiders-road-forest-drive"},{"name":"Hertford Camping & Caravanning Club Site","lat":51.78638,"lng":-0.06483,"desc":"electric hookup, Wi-Fi, showers.","_score":6,"url":"https://www.campingandcaravanningclub.co.uk/campsites/uk/hertfordshire/hertford/hertford-camping-and-caravanning-club-site"},{"name":"Kilvrecht Caravan & Camping","lat":56.68089,"lng":-4.26055,"desc":"tents welcome.","_score":6,"url":"https://forestryandland.gov.scot/visit/forest-parks/tay-forest-park/kilvrecht-campsite"},{"name":"Combe Haven Holiday Park","lat":50.85489,"lng":0.52571,"desc":"Campsite.","_score":6,"url":"https://www.haven.com/parks/sussex/combe-haven/"},{"name":"Pooh Cottage Holiday Park","lat":50.64026,"lng":-3.34274,"desc":"tents welcome, electric hookup, Wi-Fi.","_score":6,"url":"https://poohcottage.co.uk/"},{"name":"Camping & Caravanning Club - Cambridge Club Site","lat":52.16465,"lng":0.12467,"desc":"tents and caravans, electric hookup, Wi-Fi.","_score":6},{"name":"Breck Farm","lat":52.92404,"lng":1.14803,"desc":"tents and caravans, electric hookup, showers.","_score":6,"url":"https://www.breckfarm.co.uk/"},{"name":"Holme Pierrepont Country Park","lat":52.93927,"lng":-1.10076,"desc":"tents and caravans.","_score":6,"url":"https://www.nwscnotts.com/"},{"name":"Bunchrew Caravan Park","lat":57.48231,"lng":-4.3062,"desc":"tents and caravans, electric hookup, Wi-Fi, showers.","_score":6,"url":"https://bunchrew-caravanpark.co.uk/"},{"name":"Graffham Camping and Caravanning Club Site","lat":50.95876,"lng":-0.66273,"desc":"tents and caravans, electric hookup, Wi-Fi, showers.","_score":6,"url":"https://www.campingandcaravanningclub.co.uk/campsites/uk/westsussex/petworth/graffham"},{"name":"Toad Hall Caravan Site","lat":52.02773,"lng":1.24077,"desc":"Campsite.","_score":6,"url":"https://toadhallcaravans.co.uk/index.html"},{"name":"Camping Village Ariane","lat":49.28216,"lng":-0.19081,"desc":"128 pitches, tents and caravans, Wi-Fi.","_score":6,"url":"https://www.camping-ariane.com/"},{"name":"Camping Du Phare","lat":49.42483,"lng":0.22511,"desc":"tents and caravans, electric hookup, showers.","_score":6,"url":"https://www.normandie-sur-mer.fr/campings/camping-phare-honfleur"},{"name":"Donjon de Lars","lat":49.33373,"lng":-0.44364,"desc":"366 pitches.","_score":6,"url":"https://www.camping-donjon-lars.fr"},{"name":"Canterbury Camping and Caravanning Club Site","lat":51.27667,"lng":1.11113,"desc":"tents and caravans, electric hookup, Wi-Fi, showers.","_score":6,"url":"https://www.campingandcaravanningclub.co.uk/campsites/uk/kent/canterbury/canterbury"},{"name":"Broadhembury Caravan & Camping Park","lat":51.10664,"lng":0.86806,"desc":"tents and caravans, electric hookup, Wi-Fi.","_score":6,"url":"https://www.broadhembury.co.uk"},{"name":"Wombleton Caravan Park","lat":54.23605,"lng":-0.97643,"desc":"tents and caravans, Wi-Fi, showers.","_score":6,"url":"https://www.wombletoncaravanpark.co.uk"},{"name":"Camping l'Île Adeline","lat":49.30815,"lng":1.22557,"desc":"tents and caravans, electric hookup, showers.","_score":6,"url":"https://www.camping-ile-adeline.com"},{"name":"Glen Nevis Caravan and Camping Park","lat":56.80442,"lng":-5.07481,"desc":"tents and caravans, electric hookup, Wi-Fi, showers.","_score":6,"url":"https://www.glen-nevis.co.uk/"},{"name":"Camping Municipal de Clairefontaine","lat":49.56981,"lng":-1.83732,"desc":"tents and caravans, electric hookup, showers.","_score":6,"url":"https://camping-siouville-hague.com/"},{"name":"Camping de la Mer","lat":49.28477,"lng":-0.18729,"desc":"108 pitches, tents and caravans, Wi-Fi.","_score":6,"url":"https://camping-franceville.fr/"},{"name":"Camping de la Plage","lat":49.33434,"lng":0.02255,"desc":"tents and caravans.","_score":6,"url":"https://campingblonville.fr/"},{"name":"Le Point du Jour Camping","lat":49.28444,"lng":-0.19226,"desc":"139 pitches, tents and caravans, Wi-Fi, showers.","_score":6,"url":"https://vacances-seasonova.com/fr/camping/le-point-du-jour/"},{"name":"Les Peupliers","lat":49.28195,"lng":-0.17133,"desc":"Wi-Fi.","_score":6,"url":"https://www.camping-peupliers.com"},{"name":"Camping Oasis","lat":49.28451,"lng":-0.19112,"desc":"142 pitches, tents and caravans, electric hookup, showers.","_score":6,"url":"https://www.normandie-sur-mer.fr/campings/camping-oasis-3-etoiles"},{"name":"Camping de la Prairie","lat":49.34206,"lng":-0.75734,"desc":"tents welcome.","_score":6,"url":"https://www.camping-de-la-prairie.fr"},{"name":"Les Pommiers","lat":49.87858,"lng":0.82886,"desc":"61 pitches, tents and caravans, showers.","_score":6,"url":"https://www.campinglespommiers.fr"},{"name":"Green Field Family Campsite","lat":51.73028,"lng":-1.93099,"desc":"tents and caravans, Wi-Fi, showers.","_score":6,"url":"https://www.theorganicfarmshop.co.uk/stay/family-campsite/"},{"name":"Camping Omaha Beach","lat":49.38037,"lng":-0.90817,"desc":"tents and caravans, electric hookup, Wi-Fi, showers.","_score":6,"url":"https://www.camping-omaha-beach.fr"},{"name":"Camping municipal des Bords de l'Aure","lat":49.2831,"lng":-0.69899,"desc":"140 pitches, tents and caravans, electric hookup, Wi-Fi.","_score":6,"url":"https://www.camping-bayeux.fr/"},{"name":"The Oven Campsite","lat":50.79899,"lng":-0.97971,"desc":"tents and caravans, electric hookup, showers.","_score":6,"url":"https://theovencampsite.co.uk/"},{"name":"Cheddar Bridge Touring Park","lat":51.27256,"lng":-2.77618,"desc":"tents and caravans, electric hookup, Wi-Fi, showers.","_score":6,"url":"https://cheddarbridge.co.uk/"},{"name":"La Roseraie d'Omaha","lat":49.32542,"lng":-0.86543,"desc":"tents and caravans, Wi-Fi.","_score":6,"url":"https://www.camping-calvados-normandie.fr"},{"name":"Druidstone Home Farm","lat":51.80656,"lng":-5.08857,"desc":"Campsite.","_score":6,"url":"http://druidstonehomefarm.co.uk/"},{"name":"Les Hautes Coutures","lat":49.2486,"lng":-0.27223,"desc":"Campsite.","_score":6,"url":"https://www.campinghautescoutures.com"},{"name":"Camping Havre de Bernières","lat":49.33092,"lng":-0.43022,"desc":"Campsite.","_score":6,"url":"https://www.capfun.com/camping-france-basse_normandie-havre_bernieres-FR.html"},{"name":"Mer et Vacances","lat":49.32108,"lng":-0.36362,"desc":"Campsite.","_score":6,"url":"https://www.meretvacances.fr"},{"name":"Tantallon Caravan & Camping Park","lat":56.05618,"lng":-2.69085,"desc":"tents and caravans, electric hookup, showers.","_score":6,"url":"https://www.meadowhead.co.uk/parks/tantallon/"},{"name":"Blue Dolphin Touring and Camping Holiday Park","lat":54.23314,"lng":-0.33135,"desc":"tents and caravans, electric hookup, showers.","_score":6,"url":"https://www.haven.com/touring-camping/parks/yorkshire/blue-dolphin"},{"name":"Tree Grove Caravan and Camping Park","lat":52.64007,"lng":-7.23064,"desc":"30 pitches, tents and caravans, electric hookup, Wi-Fi, showers.","_score":6,"url":"http://kilkennycamping.com/"},{"name":"Llyn Gwynant Campsite","lat":53.05241,"lng":-4.01701,"desc":"1000 pitches, tents and caravans, electric hookup, Wi-Fi, showers.","_score":6,"url":"https://www.gwynant.com/"},{"name":"Camping l'Orée des Caps","lat":50.77985,"lng":1.95594,"desc":"Campsite.","_score":6,"url":"https://www.camping-lecanchy.com/fr/"},{"name":"Church Stile Farm And Holiday Park","lat":54.42599,"lng":-3.34983,"desc":"tents and caravans, electric hookup, showers.","_score":6,"url":"http://churchstile.co.uk/"},{"name":"Sligachan Campsite","lat":57.29242,"lng":-6.17535,"desc":"tents and caravans, electric hookup, showers.","_score":6,"url":"https://www.sligachancampsite.com/"},{"name":"Sous Les Pommiers","lat":49.31336,"lng":-0.90717,"desc":"66 pitches, tents and caravans, electric hookup, showers.","_score":6,"url":"https://www.onlycamp.fr/sous-les-pommiers"},{"name":"Camping municipal Quintefeuille","lat":49.33995,"lng":-0.5814,"desc":"115 pitches, tents and caravans.","_score":6,"url":"https://www.camping-asnelles.com"},{"name":"La Galouette","lat":49.58417,"lng":-1.26896,"desc":"111 pitches, tents and caravans, showers.","_score":6,"url":"https://www.camping-lagallouette.fr/"},{"name":"Camping Le Bois de Pins","lat":50.19853,"lng":1.5168,"desc":"tents and caravans, showers.","_score":6,"url":"https://www.campingleboisdepins.com/"},{"name":"Ingfield Farm Caravan Site","lat":53.54563,"lng":-1.66571,"desc":"tents and caravans, electric hookup, showers.","_score":6,"url":"https://www.ingfieldfarmcamping.co.uk/"},{"name":"Le Clos Tranquille","lat":49.25237,"lng":-0.18824,"desc":"tents and caravans, Wi-Fi.","_score":6,"url":"https://www.campingleclostranquille.fr"},{"name":"Shellbay Caravan & Camping Park","lat":57.42588,"lng":-7.36956,"desc":"tents and caravans.","_score":6,"url":"https://www.southuist.com/accommodation.php?action=view&id=43"},{"name":"Kettlewell Camping","lat":54.14507,"lng":-2.0451,"desc":"tents welcome, Wi-Fi, showers.","_score":6,"url":"https://www.kettlewellcamping.co.uk/"},{"name":"Port'Land","lat":49.34744,"lng":-0.77048,"desc":"tents and caravans, electric hookup, showers.","_score":6,"url":"https://www.camping-portland.fr"},{"name":"Camping L'Anse du Brick","lat":49.6661,"lng":-1.48588,"desc":"tents and caravans, electric hookup, showers.","_score":6,"url":"http://www.anse-du-brick.com"},{"name":"Camping La Reine Mathilde","lat":49.33067,"lng":-0.80088,"desc":"tents and caravans, showers.","_score":6,"url":"https://www.camping-normandie-reinemathilde.com"},{"name":"Tanforhesgen","lat":52.88753,"lng":-4.10613,"desc":"tents and caravans, electric hookup.","_score":6},{"name":"Camping Igesa","lat":49.66905,"lng":-1.69822,"desc":"Campsite.","_score":6,"url":"https://www.igesa.fr/decouvrez-les-actualites-igesa/camping-ou-location-optez-pour-des-vacances-en-liberte-avec-igesa"},{"name":"L'Escapade","lat":49.15562,"lng":-0.76182,"desc":"tents and caravans.","_score":6,"url":"https://www.campinglescapade.net"},{"name":"Clos des Genêts","lat":50.32842,"lng":1.591,"desc":"tents and caravans, Wi-Fi, showers.","_score":6,"url":"https://www.camping-quend-baiedesomme.com/"},{"name":"Camping Muncipal de Jonville","lat":49.60838,"lng":-1.2314,"desc":"tents and caravans, electric hookup, Wi-Fi, showers.","_score":6,"url":"https://camping-jonville.fr/"},{"name":"Green Meadows Country Park","lat":54.95045,"lng":-2.94056,"desc":"tents and caravans.","_score":6,"url":"https://www.greenmeadowscountrypark.co.uk/"},{"name":"Camping Le Royon","lat":50.33469,"lng":1.5816,"desc":"tents and caravans, showers.","_score":6,"url":"https://www.campingleroyon.com/"},{"name":"Riverbend Caravan Park","lat":52.68469,"lng":-3.46373,"desc":"tents and caravans, electric hookup.","_score":6},{"name":"Caming du Prieuré","lat":49.22765,"lng":-0.20429,"desc":"electric hookup, Wi-Fi.","_score":6,"url":"https://www.campingduprieure.com"},{"name":"Glenbrittle Campsite","lat":57.20218,"lng":-6.28778,"desc":"tents and caravans, electric hookup, showers.","_score":6,"url":"https://www.dunvegancastle.com/glenbrittle/campsite/"},{"name":"Oldbury Hill Camping and Caravanning Club Site","lat":51.2838,"lng":0.25963,"desc":"65 pitches, tents and caravans, electric hookup, Wi-Fi, showers.","_score":6,"url":"https://www.campingandcaravanningclub.co.uk/campsites/uk/kent/sevenoaks/oldburyhill"},{"name":"Ridge Farm","lat":50.67946,"lng":-2.08785,"desc":"tents and caravans, showers.","_score":6,"url":"https://www.ridgefarm.co.uk/"},{"name":"Camping du Chant des Oiseaux","lat":49.37807,"lng":0.09216,"desc":"tents and caravans, electric hookup, showers.","_score":6,"url":"https://campingtrouville.com/"},{"name":"Camping Le Château d'Arvid","lat":49.38898,"lng":0.1204,"desc":"Wi-Fi.","_score":6,"url":"https://www.capfun.com/camping-france-basse_normandie-chateau_arvid-FR.html"},{"name":"Tom's Field","lat":50.60585,"lng":-2.00841,"desc":"100 pitches, tents welcome, electric hookup, showers.","_score":6,"url":"https://www.tomsfieldcamping.co.uk/"},{"name":"St Ives Bay Holiday Park","lat":50.20441,"lng":-5.40462,"desc":"tents and caravans, electric hookup, showers.","_score":6,"url":"https://www.stivesbay.co.uk/"},{"name":"Acton Field Campsite","lat":50.60606,"lng":-2.01397,"desc":"80 pitches, tents and caravans, electric hookup, showers.","_score":6,"url":"https://www.actonfieldcampsite.co.uk/"},{"name":"Camp' Eure","lat":49.30618,"lng":1.15452,"desc":"57 pitches, tents and caravans, electric hookup, showers.","_score":6,"url":"https://campeure.fr/"},{"name":"Appuldurcombe Gardens Holiday Park","lat":50.62065,"lng":-1.22713,"desc":"tents and caravans.","_score":6,"url":"https://www.appuldurcombegardens.co.uk/"},{"name":"Treen Farm Campsite","lat":50.04821,"lng":-5.64472,"desc":"tents welcome.","_score":6,"url":"https://www.treenfarmcampsite.com/"},{"name":"Common End Farm","lat":53.0361,"lng":-1.80953,"desc":"25 pitches, tents and caravans, electric hookup, showers.","_score":6,"url":"https://www.commonendfarmcampsite.co.uk/"},{"name":"Monkton Wyld Holiday Farm Park","lat":50.76371,"lng":-2.95253,"desc":"tents and caravans, electric hookup, Wi-Fi, showers.","_score":6,"url":"https://www.monktonwyld.co.uk/"},{"name":"Camping Bois et Marais","lat":49.19976,"lng":-0.22227,"desc":"Campsite.","_score":6,"url":"https://www.camping-boisetmarais.com/"},{"name":"Le Picardy","lat":50.16694,"lng":1.65517,"desc":"tents and caravans, electric hookup, showers.","_score":6,"url":"https://www.lepicardycamping.com/"},{"name":"Ardnamurchan Campsite","lat":56.68929,"lng":-6.1323,"desc":"30 pitches, tents welcome, Wi-Fi, showers.","_score":6,"url":"https://ardnamurchancampsite.com/"},{"name":"Camp Lion Yorkshire Wildlife Park","lat":53.49794,"lng":-1.04257,"desc":"tents and caravans, showers.","_score":6,"url":"https://www.yorkshirewildlifepark.com/short-breaks/camping/"},{"name":"Tan-y-fron","lat":52.74149,"lng":-3.87567,"desc":"tents and caravans, electric hookup.","_score":6},{"name":"Pennine View Park","lat":54.46229,"lng":-2.35433,"desc":"tents and caravans, Wi-Fi, showers.","_score":6,"url":"https://www.pennineviewpark.co.uk/"},{"name":"Linnhe Lochside Holiday Park","lat":56.84559,"lng":-5.16153,"desc":"tents and caravans, electric hookup, Wi-Fi, showers.","_score":6,"url":"https://www.linnhe-lochside-holidays.co.uk/"},{"name":"Camping L'Églantier Ambleteuse","lat":50.81264,"lng":1.60471,"desc":"240 pitches, tents and caravans, electric hookup, Wi-Fi, showers.","_score":6,"url":"https://www.camping-leglantier.fr"},{"name":"Black Rock Sands Camping & Touring","lat":52.91554,"lng":-4.1922,"desc":"tents and caravans, showers.","_score":6,"url":"https://blackrocksandstouringandcampingpark.com/"},{"name":"Glan y Mor Camping Park","lat":52.91222,"lng":-4.18552,"desc":"tents and caravans, showers.","_score":6,"url":"https://glanymorcampingporthmadog.com/"},{"name":"Hayfield Campsite","lat":53.37778,"lng":-1.93072,"desc":"tents and caravans, Wi-Fi.","_score":6,"url":"https://www.campingandcaravanningclub.co.uk/campsites/uk/derbyshire/high-peak/hayfield-camping-and-caravanning-club-site"},{"name":"Camping du Hâble","lat":49.70502,"lng":-1.84019,"desc":"tents and caravans, Wi-Fi.","_score":6,"url":"https://campingduhable.lahague.com"},{"name":"Gwern Gof Uchaf Campsite","lat":53.12457,"lng":-3.98511,"desc":"tents welcome.","_score":6,"url":"https://www.gwerngofuchaf.com"},{"name":"Dolgam Campsite","lat":53.09813,"lng":-3.87731,"desc":"tents and caravans, electric hookup, showers.","_score":6,"url":"https://www.dolgam-snowdonia.co.uk"},{"name":"Strathfillan Wigwams","lat":56.42581,"lng":-4.66941,"desc":"tents welcome, electric hookup, showers.","_score":6,"url":"https://www.wigwamholidays.com/strathfillan"},{"name":"Sands Of Luce Holiday Park","lat":54.8155,"lng":-4.95642,"desc":"Wi-Fi.","_score":6,"url":"https://www.sandsofluceholidaypark.co.uk/"},{"name":"Drumlochart Caravan Park","lat":54.92487,"lng":-5.12415,"desc":"Campsite.","_score":6,"url":"https://www.drumlochart.co.uk/"},{"name":"Andrewshayes Holiday Park","lat":50.78326,"lng":-3.06805,"desc":"tents and caravans, Wi-Fi.","_score":6,"url":"https://www.andrewshayes.co.uk/"},{"name":"Aird Donald Caravan Park","lat":54.90137,"lng":-5.00659,"desc":"tents and caravans, electric hookup, Wi-Fi, showers.","_score":6,"url":"https://aird-donald.co.uk/"},{"name":"Bwch-Yn-Uchaf Campsite","lat":52.85816,"lng":-3.66298,"desc":"tents and caravans, electric hookup.","_score":6,"url":"https://www.bwch-yn-uchaf.co.uk"},{"name":"Cromer Camping","lat":52.92461,"lng":1.29606,"desc":"tents welcome, showers.","_score":6,"url":"https://www.cromercamping.com"},{"name":"Painters Farm Campsite","lat":51.29597,"lng":0.85267,"desc":"tents and caravans, electric hookup, showers.","_score":6,"url":"https://paintersfarmcampsite.com/"},{"name":"Chestnut Meadow","lat":50.8661,"lng":0.44566,"desc":"75 pitches, tents and caravans, electric hookup, Wi-Fi.","_score":6,"url":"https://www.osbornleisure.co.uk/chestnut-meadow-country-park"},{"name":"Miltonhaven Seaside Caravan Park & Campsite","lat":56.78065,"lng":-2.37115,"desc":"tents and caravans, electric hookup, showers.","_score":6,"url":"http://miltonhaven.co.uk"},{"name":"Little Winnick Touring Park","lat":50.29934,"lng":-4.79777,"desc":"tents and caravans, Wi-Fi, showers.","_score":6,"url":"https://www.littlewinnick.co.uk/"},{"name":"Wilverley Scout Campsite","lat":50.81051,"lng":-1.66358,"desc":"showers.","_score":6,"url":"https://wilverley.southamptoncityscouts.org.uk/home"},{"name":"Les Pommiers","lat":49.24635,"lng":0.45017,"desc":"tents and caravans, electric hookup, showers.","_score":6,"url":"https://www.campinglespommiers.com"},{"name":"Cwmrhwyddfor Campsite","lat":52.69114,"lng":-3.8683,"desc":"tents and caravans, electric hookup.","_score":6,"url":"https://www.ukcampsite.co.uk/sites/details.asp?revid=3769"},{"name":"Tarka Holiday Park","lat":51.09275,"lng":-4.09607,"desc":"electric hookup, showers.","_score":6,"url":"https://www.parkholidays.com/our-parks/devon/tarka/caravan-holidays"},{"name":"Tyn-Yr-Onnen Farm & Campsite","lat":53.10608,"lng":-4.19153,"desc":"tents and caravans, electric hookup, Wi-Fi, showers.","_score":6,"url":"https://www.tyn-yr-onnen.co.uk/"},{"name":"Trevaylor Caravan and Camping Park","lat":50.13441,"lng":-5.68285,"desc":"showers.","_score":6,"url":"https://www.cornishcamping.co.uk/"},{"name":"Glentress Forest Lodges","lat":55.64738,"lng":-3.13896,"desc":"tents and caravans, electric hookup, showers.","_score":6,"url":"https://www.glentressforestlodges.co.uk/"},{"name":"Talybont Farm Camping","lat":51.89656,"lng":-3.28707,"desc":"tents and caravans, electric hookup, Wi-Fi, showers.","_score":6,"url":"https://www.talybontfarmcamping.co.uk/"},{"name":"Keltie Bridge","lat":56.23743,"lng":-4.18012,"desc":"tents and caravans.","_score":6,"url":"https://keltiebridge.co.uk/"},{"name":"Saddlescombe Campsite","lat":50.88717,"lng":-0.19128,"desc":"Campsite.","_score":6,"url":"https://www.camillaandroly.co.uk/camping"},{"name":"Cefn Cae Camping Site","lat":53.23189,"lng":-3.86265,"desc":"tents and caravans, electric hookup, Wi-Fi, showers.","_score":6,"url":"https://www.campinginnorthwales.co.uk/"},{"name":"Maynards Caravan & Camping Park","lat":50.84468,"lng":-0.53922,"desc":"tents and caravans, electric hookup.","_score":6},{"name":"Grizedale Camp Site","lat":54.31631,"lng":-3.02002,"desc":"tents and caravans, showers.","_score":6,"url":"http://www.grizedale-camping.co.uk"},{"name":"Wicken Fen Wild Camping","lat":52.26461,"lng":0.23692,"desc":"24 pitches.","_score":6,"url":"https://www.nationaltrust.org.uk/wicken-fen-nature-reserve/features/wild-camping"},{"name":"Trevedra Farm","lat":50.08882,"lng":-5.67959,"desc":"tents and caravans, electric hookup, Wi-Fi, showers.","_score":6,"url":"https://www.trevedrafarm.co.uk/"},{"name":"Loch Ken Holiday Park","lat":55.00891,"lng":-4.05365,"desc":"tents and caravans, electric hookup, Wi-Fi, showers.","_score":6,"url":"https://www.lochkenholidaypark.co.uk/"},{"name":"Hopleys Family Camping","lat":52.3709,"lng":-2.34,"desc":"electric hookup, showers.","_score":6,"url":"https://www.hopleyscamping.co.uk/"},{"name":"Camping Municipal La Falaise","lat":50.67117,"lng":1.57594,"desc":"tents and caravans, electric hookup, Wi-Fi, showers.","_score":6,"url":"https://www.camping-equihen-plage.fr/"},{"name":"Chalky Downs Campsite","lat":50.84242,"lng":-0.08339,"desc":"tents welcome.","_score":6,"url":"https://chalkydownscampsite.com/"},{"name":"Hillside Campsite","lat":51.29356,"lng":0.63498,"desc":"tents and caravans, electric hookup, showers.","_score":6,"url":"https://www.hookandhatchetpub.co.uk/accomodation"},{"name":"Brook Lodge Farm Camping & Caravan Park","lat":51.35499,"lng":-2.74049,"desc":"tents and caravans, Wi-Fi, showers.","_score":6,"url":"https://www.brooklodgefarm.com/"},{"name":"Domaine de Litteau","lat":49.1588,"lng":-0.92092,"desc":"tents and caravans.","_score":6,"url":"https://siblu.fr/camping-domaine-de-litteau"},{"name":"Pont Kemys Caravan & Camping Park","lat":51.74778,"lng":-2.94529,"desc":"tents and caravans, electric hookup, showers.","_score":6,"url":"https://pontkemys.co.uk"},{"name":"Forest View Camping","lat":53.25581,"lng":-0.29035,"desc":"tents and caravans, showers.","_score":6,"url":"https://www.pitchup.com/campsites/England/Central/Lincolnshire/Market_Rasen/forest-view-camping/"},{"name":"Huttopia Calvados","lat":49.20909,"lng":0.39078,"desc":"150 pitches, tents and caravans, electric hookup, Wi-Fi, showers.","_score":6,"url":"https://europe.huttopia.com/en/site/calvados-normandy/"},{"name":"Holywell Bay Holiday Park","lat":50.38282,"lng":-5.13785,"desc":"tents and caravans, showers.","_score":6,"url":"https://www.parkdeanresorts.co.uk/location/cornwall/holywell-bay/"},{"name":"Hamlet Wood Scout Campsite","lat":51.24393,"lng":0.49925,"desc":"tents welcome, electric hookup, showers.","_score":6,"url":"https://www.hamletwood.org.uk/"},{"name":"The Naturist Foundation","lat":51.39532,"lng":0.13913,"desc":"tents and caravans, electric hookup.","_score":6,"url":"https://www.naturistfoundation.org"},{"name":"Hopehill Scout Campsite","lat":51.35173,"lng":0.35184,"desc":"tents welcome, showers.","_score":6,"url":"https://www.hopehill.org.uk/"},{"name":"Woollett Hall Farm","lat":51.43316,"lng":0.14114,"desc":"tents and caravans, electric hookup, showers.","_score":6,"url":"http://www.campingatkelseys.co.uk/"},{"name":"L'Hypo'camp","lat":49.35028,"lng":-0.82035,"desc":"tents and caravans.","_score":6,"url":"https://www.lhypocamp.com"},{"name":"Camping Abijune","lat":49.68246,"lng":0.21255,"desc":"tents and caravans, electric hookup, Wi-Fi, showers.","_score":6,"url":"https://www.camping-abijune.com/"},{"name":"Heritage Coast Campsite","lat":51.42228,"lng":-3.56138,"desc":"tents and caravans, electric hookup, Wi-Fi, showers.","_score":6,"url":"https://heritagecoast.uk/"},{"name":"Talkin Tarn Campsite","lat":54.92586,"lng":-2.71119,"desc":"Campsite.","_score":6,"url":"https://www.carlisle.gov.uk/talkintarn/Planning-Your-Visit/Camping"},{"name":"Llwyngwern Farm","lat":52.62552,"lng":-3.84472,"desc":"30 pitches, tents and caravans, electric hookup.","_score":6,"url":"https://www.ukcampsite.co.uk/sites/details.asp?revid=5965"},{"name":"Drymen Camping","lat":56.05374,"lng":-4.43227,"desc":"tents welcome, electric hookup, Wi-Fi, showers.","_score":6,"url":"https://drymencamping.co.uk"},{"name":"GCU Le Crotoy","lat":50.22234,"lng":1.61686,"desc":"33 pitches, tents and caravans, Wi-Fi.","_score":6,"url":"https://www.gcu.asso.fr/terrains/le-crotoy-somme-80"},{"name":"GCU Quiberville","lat":49.89826,"lng":0.91426,"desc":"33 pitches, tents and caravans, electric hookup, showers.","_score":6,"url":"https://www.gcu.asso.fr/terrains/quiberville-seine-maritime-76"},{"name":"Camping G.C.U. de Grandcamp-Maisy","lat":49.38579,"lng":-1.04234,"desc":"50 pitches, tents and caravans, Wi-Fi.","_score":6,"url":"https://www.gcu.asso.fr/campings/camping-grandcamp-maisy"},{"name":"Lower Grange Farm Scout Activity Centre","lat":51.29578,"lng":0.52498,"desc":"tents welcome, showers.","_score":6,"url":"https://www.lowergrangefarm.co.uk/"},{"name":"The Wave Campsite","lat":51.54386,"lng":-2.60765,"desc":"electric hookup, showers.","_score":6,"url":"https://www.thewave.com/"},{"name":"Clarion Lodge Campsite","lat":53.8929,"lng":-1.7176,"desc":"tents and caravans, electric hookup, showers.","_score":6,"url":"www.clarionlodgecampsite.co.uk"},{"name":"Moorcroft Campsite and Bunkhouse","lat":57.51691,"lng":-7.28582,"desc":"tents and caravans, electric hookup, Wi-Fi, showers.","_score":6,"url":"https://www.moorcroftholidays.com/"},{"name":"CSPO camping naturiste","lat":49.7281,"lng":0.30881,"desc":"120 pitches, tents and caravans, Wi-Fi.","_score":6,"url":"http://www.cspo-lehavre.org/Cspo%20FR/2%20Terrain.htm"},{"name":"Chelsfield Farm Holiday Park","lat":50.725,"lng":-4.44874,"desc":"electric hookup, Wi-Fi, showers.","_score":6,"url":"https://www.chelsfieldfarm.co.uk/"},{"name":"Ferry View Campsite","lat":58.63768,"lng":-3.16876,"desc":"tents and caravans, showers.","_score":6,"url":"https://www.ferryview.scot/"},{"name":"Camping Saint-Nicolas","lat":49.23514,"lng":0.72616,"desc":"tents and caravans, Wi-Fi.","_score":6,"url":"https://www.campingsaintnicolas.fr"},{"name":"Rivermill Touring Caravan and Camping Park","lat":52.46313,"lng":-0.11052,"desc":"tents and caravans, electric hookup.","_score":6,"url":"https://www.facebook.com/rivermillramsey/"},{"name":"Apple Blossom Caravan and Camping","lat":53.71136,"lng":-1.05913,"desc":"tents and caravans, electric hookup, showers.","_score":6,"url":"https://appleblossomcaravanandcamping.com/"},{"name":"Windmill Campersite","lat":50.68339,"lng":-1.31608,"desc":"tents welcome, electric hookup, Wi-Fi, showers.","_score":6,"url":"https://www.windmillcampersite.com/"},{"name":"Tregroes Caravan, Camping & Glamping Park","lat":51.98505,"lng":-4.99612,"desc":"tents and caravans, Wi-Fi.","_score":6,"url":"https://www.tregroes.co.uk/"},{"name":"Halesworth Holiday Park","lat":52.35746,"lng":1.51378,"desc":"tents and caravans, electric hookup.","_score":6,"url":"https://www.halesworthholidaypark.com/"},{"name":"Ling's Meadow","lat":52.3405,"lng":0.89262,"desc":"tents welcome.","_score":6,"url":"https://lingsmeadow.co.uk"},{"name":"Riverside Caravan Park","lat":51.85882,"lng":-3.14143,"desc":"tents and caravans, electric hookup, showers.","_score":6,"url":"https://riversidecaravanscrickhowell.co.uk"},{"name":"Dune Fleurie","lat":50.31709,"lng":1.58653,"desc":"Wi-Fi.","_score":6,"url":"https://www.capfun.com/camping-france-picardie-dune_fleurie-FR.html"},{"name":"The Wee Campsite","lat":57.40255,"lng":-5.48669,"desc":"tents and caravans, electric hookup.","_score":6,"url":"https://weecampsite.com/"},{"name":"Crowdecote Campsite","lat":53.18653,"lng":-1.85308,"desc":"tents welcome, showers.","_score":6,"url":"https://www.pitchup.com/campsites/England/Central/Derbyshire/crowdecote/crowdecote-campsite"},{"name":"Wairds Park Campsite","lat":56.79694,"lng":-2.32589,"desc":"tents and caravans, electric hookup, showers.","_score":6,"url":"https://www.johnshaven.com/accommodation/wairds-park-campsite"},{"name":"Camping Les Bruyères","lat":49.40595,"lng":0.38067,"desc":"tents and caravans, Wi-Fi, showers.","_score":6,"url":"https://www.campinglesbruyeres.com"},{"name":"Bexon Lane Scout Campsite","lat":51.30267,"lng":0.71879,"desc":"tents welcome, electric hookup, showers.","_score":6,"url":"https://www.sittingbournescouts.org.uk/page-campsite.html"},{"name":"Trelispen Caravan & Camping Park","lat":50.24597,"lng":-4.79978,"desc":"electric hookup.","_score":6,"url":"https://www.trelispen.co.uk/"},{"name":"Brighthouse Farm Caravan & Campsite","lat":52.15399,"lng":0.71022,"desc":"tents and caravans, electric hookup.","_score":6,"url":"https://brighthousefarm.co.uk/caravan-camping/"},{"name":"Nantcellan Barns","lat":52.43823,"lng":-4.06298,"desc":"tents and caravans, showers.","_score":6,"url":"https://nantcellanbarns.com/"},{"name":"Oakwood Caravan & Camping Park","lat":57.21167,"lng":-3.82476,"desc":"tents and caravans, electric hookup, showers.","_score":6,"url":"https://oakwoodcampingpark.co.uk/"},{"name":"Glenluce Holiday Park","lat":54.87874,"lng":-4.80696,"desc":"Wi-Fi.","_score":6,"url":"https://whitecairncaravans.co.uk/"},{"name":"Camping Vágseiði","lat":61.46698,"lng":-6.83613,"desc":"tents and caravans, Wi-Fi.","_score":6,"url":"https://vagur.fo/kamping"},{"name":"Camping Skye","lat":57.24532,"lng":-5.91885,"desc":"tents and caravans, electric hookup, Wi-Fi, showers.","_score":6,"url":"https://campingskye.com/"},{"name":"By the Way","lat":56.43355,"lng":-4.71247,"desc":"tents and caravans, electric hookup, showers.","_score":6,"url":"https://tyndrumbytheway.com"},{"name":"The Bull I' Th' Thorn Campsite","lat":53.19599,"lng":-1.80842,"desc":"tents and caravans, electric hookup, Wi-Fi, showers.","_score":6,"url":"https://www.bullithorn.co.uk/camping/"},{"name":"Lochan Maol Dhuinne Camping permit area March-September","lat":56.14311,"lng":-4.63937,"desc":"tents welcome.","_score":6,"url":"https://www.lochlomond-trossachs.org/things-to-do/camping/get-a-permit/"},{"name":"Thames Head Inn","lat":51.68704,"lng":-2.02885,"desc":"electric hookup, Wi-Fi.","_score":6,"url":"https://www.thamesheadinn.co.uk/camping-caravan-sites-cirencester-glos.html"},{"name":"Galloway Point Holiday Park","lat":54.83897,"lng":-5.10494,"desc":"electric hookup, showers.","_score":6,"url":"https://www.gallowaypoint.com/"},{"name":"Cae Gwyn Farm Holidays","lat":52.84995,"lng":-3.9117,"desc":"tents welcome.","_score":6,"url":"https://caegwynfarm.co.uk"},{"name":"The Getaway","lat":52.1335,"lng":-7.6073,"desc":"tents and caravans, electric hookup, Wi-Fi, showers.","_score":6,"url":"https://www.thegetaway.ie/"},{"name":"Cae Adda","lat":52.90184,"lng":-3.9481,"desc":"tents welcome.","_score":6,"url":"https://www.caeaddacamping.com/"},{"name":"Willow Fields","lat":53.49581,"lng":-0.82181,"desc":"tents and caravans, electric hookup.","_score":6,"url":"https://www.willowfieldscamping.co.uk/"},{"name":"Aire naturelle d'Agy","lat":49.24395,"lng":-0.77972,"desc":"tents and caravans, electric hookup, showers.","_score":6,"url":"https://www.airenaturelle-camping-agy.fr"},{"name":"Barra Sands","lat":57.04595,"lng":-7.43769,"desc":"tents and caravans.","_score":6,"url":"https://barrasands.weebly.com/"},{"name":"Culag beach Camping permit area March-September","lat":56.12394,"lng":-4.65166,"desc":"tents welcome.","_score":6,"url":"https://www.lochlomond-trossachs.org/things-to-do/camping/get-a-permit/"},{"name":"Tarbet isle camping permit area March-September","lat":56.21192,"lng":-4.70033,"desc":"tents welcome.","_score":6,"url":"https://www.lochlomond-trossachs.org/things-to-do/camping/get-a-permit/"},{"name":"Inveruglas camping permit area March-September","lat":56.25224,"lng":-4.70767,"desc":"tents and caravans.","_score":6,"url":"https://www.lochlomond-trossachs.org/things-to-do/camping/get-a-permit/"},{"name":"Suie Field camping permit area March-September","lat":56.13723,"lng":-4.65883,"desc":"tents welcome.","_score":6,"url":"https://www.lochlomond-trossachs.org/things-to-do/camping/get-a-permit/"},{"name":"Firkin Point B camping permit area March-September","lat":56.17101,"lng":-4.67835,"desc":"tents welcome.","_score":6,"url":"https://www.lochlomond-trossachs.org/things-to-do/camping/get-a-permit/"},{"name":"Firkin Point A camping permit area March-September","lat":56.17095,"lng":-4.679,"desc":"tents welcome.","_score":6,"url":"https://www.lochlomond-trossachs.org/things-to-do/camping/get-a-permit/"},{"name":"Firkin Point C camping permit area March-September","lat":56.1706,"lng":-4.67632,"desc":"tents welcome.","_score":6,"url":"https://www.lochlomond-trossachs.org/things-to-do/camping/get-a-permit/"},{"name":"Loch Ard camping permit area March-September","lat":56.17614,"lng":-4.48221,"desc":"tents welcome.","_score":6,"url":"https://www.lochlomond-trossachs.org/things-to-do/camping/get-a-permit/"},{"name":"Loch Achray South camping permit area March-September","lat":56.22592,"lng":-4.40743,"desc":"tents welcome.","_score":6,"url":"https://www.lochlomond-trossachs.org/things-to-do/camping/get-a-permit/"},{"name":"Miny Park","lat":50.41899,"lng":1.58599,"desc":"tents and caravans.","_score":6,"url":"https://www.minypark.net/"},{"name":"Deepdale Camping & Rooms","lat":52.96344,"lng":0.68559,"desc":"tents and caravans.","_score":6,"url":"https://deepdalecamping.co.uk/camping/"},{"name":"Hazelbank Farm","lat":51.02649,"lng":-0.79418,"desc":"Campsite.","_score":6,"url":"https://www.hazelbank.farm/"},{"name":"Gunthorpe Camping","lat":52.98774,"lng":-0.98321,"desc":"tents and caravans, showers.","_score":6,"url":"https://www.gunthorpecamping.co.uk/"},{"name":"Swallowtails Glamping and Camping","lat":54.2374,"lng":-0.78243,"desc":"tents and caravans, electric hookup, showers.","_score":6,"url":"https://www.swallowtailholidays.co.uk/"},{"name":"Scar Close","lat":54.15019,"lng":-2.78738,"desc":"tents and caravans, showers.","_score":6,"url":"https://www.scarclose.com/"},{"name":"Llanbenwch Caravan Park","lat":53.07238,"lng":-3.28566,"desc":"tents and caravans, electric hookup, Wi-Fi, showers.","_score":6,"url":"https://www.llanbenwch.co.uk/"},{"name":"Curly Hill Campsite & Centre","lat":53.93589,"lng":-1.81491,"desc":"tents welcome, showers.","_score":6,"url":"https://www.wharfedalescouts.org.uk/curlyhill/"},{"name":"Primrose Cottage Camping","lat":53.66315,"lng":-2.60623,"desc":"tents and caravans.","_score":6,"url":"https://www.pitchup.com/campsites/England/North_West/Lancashire/Chorley/primrose-cottage-camping/"},{"name":"Philpin Farm Campsite","lat":54.19682,"lng":-2.39617,"desc":"tents welcome, Wi-Fi, showers.","_score":6,"url":"http://www.philpinfarm.co.uk/"},{"name":"Bainside Fishery & Campsite","lat":53.14914,"lng":-0.1465,"desc":"tents and caravans.","_score":6,"url":"https://www.bainside.co.uk/"},{"name":"Studland Summer Camp (SSC)","lat":50.63166,"lng":-2.01324,"desc":"tents and caravans, showers.","_score":6,"url":"https://studlandsummercamp.org.uk"},{"name":"The Palm Tree","lat":51.18122,"lng":1.1352,"desc":"Campsite.","_score":5},{"name":"Crimdon House Farm","lat":54.72052,"lng":-1.25159,"desc":"Campsite.","_score":5,"url":"https://www.campingandcaravanningclub.co.uk/campsites/uk/county-durham/hartlepool/crimdonhousefarm/"},{"name":"Canterbury Reach Lodge Retreat","lat":51.21623,"lng":1.0585,"desc":"Wi-Fi.","_score":4,"url":"https://www.darwinescapes.co.uk/parks/canterbury-reach-lodge-retreat/"},{"name":"Levenwick Campsite","lat":59.97174,"lng":-1.27686,"desc":"tents and caravans, electric hookup, showers.","_score":4,"url":"https://www.levenwick.shetland.co.uk/the-campsite.html"},{"name":"Skeld Caravan Park and Campsite","lat":60.18639,"lng":-1.43822,"desc":"tents and caravans, electric hookup, Wi-Fi, showers.","_score":4,"url":"https://www.skeldcaravanpark.co.uk/"},{"name":"Sunnyside Farm","lat":51.22693,"lng":1.09233,"desc":"Campsite.","_score":4,"url":"http://www.sunnysidecamping.co.uk/"},{"name":"Fidden Farm","lat":56.30793,"lng":-6.36311,"desc":"tents and caravans, showers.","_score":4,"url":"https://fiddenfarm.co.uk/"},{"name":"Ballamoar Farm","lat":54.30744,"lng":-4.53512,"desc":"Campsite.","_score":4,"url":"http://www.ballamoar.com"},{"name":"Hook Farm Campsite","lat":51.07357,"lng":-0.05566,"desc":"tents welcome.","_score":4,"url":"https://www.hook-farm-west-hoathly.co.uk/camping/"},{"name":"Bowley International Scout Centre","lat":53.80093,"lng":-2.40636,"desc":"Campsite.","_score":4,"url":"https://bowley.org.uk/"},{"name":"Cashel Camping & Caravan Park Forest Holidays","lat":56.11256,"lng":-4.58201,"desc":"tents and caravans, electric hookup, showers.","_score":4,"url":"http://camping.forestholidays.co.uk/camping_and_caravanning/our_sites__locations/scotland/cashel.aspx"},{"name":"Great Tower Scout Activity Centre","lat":54.3155,"lng":-2.93228,"desc":"electric hookup, showers.","_score":4,"url":"https://www.scoutactivitycentres.org.uk/locations/greattower/"},{"name":"Dunn Street Farm Campsite","lat":51.19862,"lng":0.84953,"desc":"tents and caravans, showers.","_score":4,"url":"https://www.dunnstreetfarm.co.uk"},{"name":"St Ives Farm Campsite","lat":51.10982,"lng":0.08197,"desc":"tents and caravans, showers.","_score":4,"url":"http://www.stivesfarm.co.uk/"},{"name":"Away From It All Glamping Holiday","lat":52.94363,"lng":-4.42113,"desc":"Campsite.","_score":4,"url":"http://www.away-from-it-all.co.uk/"},{"name":"Ardlui Holiday Home Park","lat":56.30441,"lng":-4.71966,"desc":"tents and caravans.","_score":4,"url":"https://ardlui.com/campsite-loch-lomond/"},{"name":"Barn Farm Campsite & Bunk Barns","lat":53.1573,"lng":-1.63696,"desc":"Campsite.","_score":4,"url":"https://www.barnfarmcamping.com/"},{"name":"Ashwell House","lat":52.05814,"lng":0.24764,"desc":"tents and caravans.","_score":4,"url":"https://www.campingandcaravanningclub.co.uk/campsites/uk/essex/saffron-walden/ashwellhouse/"},{"name":"Longthorns Farm Camping Site","lat":50.70188,"lng":-2.21913,"desc":"200 pitches.","_score":4,"url":"https://www.longthornsfarm.co.uk/"},{"name":"Skye Eco Bells Glamping","lat":57.39819,"lng":-6.56776,"desc":"12 pitches.","_score":4,"url":"https://www.airbnb.co.uk/rooms/3107545"},{"name":"Gadlys Coastal Holiday Cottages","lat":53.37199,"lng":-4.55219,"desc":"tents and caravans, showers.","_score":4,"url":"https://www.ukcampsite.co.uk/sites/details.asp?revid=7741"},{"name":"Sandy Glade Holiday Park","lat":51.27652,"lng":-3.01187,"desc":"Campsite.","_score":4,"url":"https://www.johnfowlerholidays.com/somerset-holiday-park/sandy-glade-holiday-park"},{"name":"Caird's Camping and Caravan Site","lat":51.0221,"lng":0.38992,"desc":"Campsite.","_score":4,"url":"https://www.battenhurstandcairds.com"},{"name":"Killybegs Holiday Park","lat":54.62188,"lng":-8.4528,"desc":"tents and caravans, showers.","_score":4,"url":"https://www.killybegsholidaypark.ie/"},{"name":"Huntick Farm Caravan Park","lat":50.75253,"lng":-2.06091,"desc":"showers.","_score":4,"url":"https://www.huntick.co.uk/"},{"name":"Pillars of Hercules","lat":56.26029,"lng":-3.22847,"desc":"electric hookup, showers.","_score":4,"url":"https://pillars.co.uk/campsite"},{"name":"Church Stretton Camp & Fish","lat":52.50036,"lng":-2.76008,"desc":"tents welcome.","_score":4,"url":"https://www.campandfishoaklands.co.uk/"},{"name":"TANDO","lat":55.00365,"lng":-1.76494,"desc":"Campsite.","_score":4,"url":"https://www.tandoclub.org"},{"name":"Wowo Campsite","lat":50.99264,"lng":-0.00724,"desc":"Campsite.","_score":4,"url":"https://www.wowo.co.uk"},{"name":"Cotswold Carp Farm","lat":51.88161,"lng":-1.74544,"desc":"10 pitches, tents and caravans, Wi-Fi.","_score":4,"url":"https://cotswoldcarpfarm.wixsite.com/cotswolds"},{"name":"High Yedmandale Farm Campsite","lat":54.267,"lng":-0.51147,"desc":"tents and caravans, electric hookup, showers.","_score":4,"url":"https://www.fvmc.co.uk/"},{"name":"Curracloe Caravan and Camping Park","lat":52.40172,"lng":-6.36153,"desc":"tents and caravans, showers.","_score":4,"url":"http://curracloeholidayvillas.ie/dir/"},{"name":"Longfold Farm Campsite","lat":53.68529,"lng":-2.79254,"desc":"Campsite.","_score":4,"url":"https://www.popesfarms.co.uk/longfold.html"},{"name":"Lees Wood Scout & Guide Activity Centre","lat":51.67238,"lng":-0.44751,"desc":"Campsite.","_score":4,"url":"https://leeswood.org.uk/"},{"name":"Pentwyn Farm Camp Site","lat":51.90937,"lng":-3.36369,"desc":"Campsite.","_score":4,"url":"https://pentwynfarm.wales/accommodation/camping-farm"},{"name":"Yapham Holds Farmhouse","lat":53.94829,"lng":-0.82398,"desc":"tents welcome.","_score":4,"url":"https://www.yaphamholdsfarmhouse.com/"},{"name":"Garrigill Village Hall Camp Site","lat":54.76835,"lng":-2.39683,"desc":"tents welcome, showers.","_score":4,"url":"https://www.garrigillvh.org.uk/the-campsite/"},{"name":"Camping Les Etangs","lat":50.16046,"lng":1.61742,"desc":"tents and caravans, showers.","_score":4,"url":"https://www.campingbaiedesomme.net/"},{"name":"Humblescough Farm","lat":53.89126,"lng":-2.81158,"desc":"Campsite.","_score":4,"url":"https://www.humblescoughfarm.co.uk/"},{"name":"Oakhill Leisure Ltd","lat":53.13863,"lng":-0.68407,"desc":"Wi-Fi.","_score":4,"url":"https://www.oakhill-leisure.co.uk/"},{"name":"Askrigg Camping","lat":54.31359,"lng":-2.08362,"desc":"Campsite.","_score":4,"url":"https://askrigg-camping.com/"},{"name":"Michael United AFC Campsite","lat":54.28691,"lng":-4.58743,"desc":"Campsite.","_score":4,"url":"https://www.visitisleofman.com/trade/information/product-catch-all/michael-utd-afc-campsite-p1287451"},{"name":"Dentdale Glamping Pods","lat":54.27874,"lng":-2.46176,"desc":"Campsite.","_score":4,"url":"https://dentdalepods.co.uk/"},{"name":"The Secret Campsite","lat":50.93944,"lng":0.00944,"desc":"Wi-Fi.","_score":4,"url":"https://thesecretcampsite.co.uk/"},{"name":"L'Oiseau Blanc","lat":49.80466,"lng":0.5214,"desc":"tents and caravans.","_score":4,"url":"https://www.openstreetmap.org/node/7692436374"},{"name":"Côte d'Albâtre","lat":49.79327,"lng":0.5182,"desc":"Campsite.","_score":4,"url":"https://www.campingcotedalbatre.fr"},{"name":"Greengill Campsite","lat":54.59659,"lng":-2.62788,"desc":"electric hookup.","_score":4,"url":"https://www.greengillholidays.co.uk"},{"name":"Pointer Farm","lat":53.898,"lng":-2.94119,"desc":"40 pitches.","_score":4,"url":"https://www.farmescapes.co.uk/"},{"name":"Century House Camp Site","lat":53.62019,"lng":-2.96443,"desc":"electric hookup, showers.","_score":4,"url":"https://centuryhousecampsite.co.uk/"},{"name":"Bothag Bhuirgh Camping and Pods","lat":58.41828,"lng":-6.43976,"desc":"Campsite.","_score":4,"url":"https://www.bothagbhuirgh.com/"},{"name":"Swattesfield Campsite","lat":52.30412,"lng":1.06065,"desc":"tents welcome.","_score":4,"url":"https://www.swattesfieldcampsite.co.uk/"},{"name":"Cwtch Camping","lat":51.72966,"lng":-4.95079,"desc":"Campsite.","_score":4,"url":"https://www.cwtchcamping.co.uk/"},{"name":"Kytra Lock","lat":57.12192,"lng":-4.72281,"desc":"tents welcome.","_score":4},{"name":"À la bergerie - La cornette","lat":49.49568,"lng":1.7148,"desc":"tents and caravans, showers.","_score":4,"url":"https://www.homecamper.fr/land/36226"},{"name":"The Alltimate View","lat":51.89826,"lng":-3.26565,"desc":"Campsite.","_score":4,"url":"https://www.pitchup.com/campsites/Wales/Mid-Wales/Powys/Brecon/the-alltimate-view/"},{"name":"Cefn Coed","lat":52.73681,"lng":-3.97178,"desc":"tents and caravans.","_score":4,"url":"https://www.cefncoed.co.uk/"},{"name":"New Forest View Caravan Park and Campsite","lat":52.68563,"lng":-1.47398,"desc":"Wi-Fi.","_score":4,"url":"https://www.newforestview.com/"},{"name":"Lorne Estate","lat":54.656,"lng":-5.79502,"desc":"Campsite.","_score":4,"url":"https://discoverlorne.org.uk/"},{"name":"St John's United Football Club Campsite","lat":54.19996,"lng":-4.63846,"desc":"Campsite.","_score":4,"url":"https://www.stjohnsfootballclub.com/"},{"name":"Mullacott Farm","lat":51.18776,"lng":-4.12779,"desc":"tents and caravans.","_score":4,"url":"https://www.mullacottfarm.co.uk/camping"},{"name":"Farrs Meadow","lat":50.8026,"lng":-2.00503,"desc":"tents welcome, showers.","_score":4,"url":"https://farrsmeadow.co.uk/"},{"name":"Harbour Lodge","lat":51.79584,"lng":1.06623,"desc":"tents welcome.","_score":4,"url":"https://www.pitchup.com/campsites/England/South_East/Essex/st-osyth/harbour-lodge/"},{"name":"La Sauce de la Paix","lat":49.25072,"lng":-0.7363,"desc":"tents welcome.","_score":4,"url":"https://assocdelapaix.wixsite.com/accueil/aire-naturelle-de-camping"},{"name":"Mwnt Camping","lat":52.12175,"lng":-4.63565,"desc":"Campsite.","_score":4,"url":"https://www.mwntcamping.com"},{"name":"Bluebell Camp Site","lat":51.04193,"lng":-0.05271,"desc":"tents welcome, showers.","_score":4,"url":"https://www.yampcamp.co.uk/bluebell-camp"},{"name":"Three Golden Cups Campsite","lat":51.45271,"lng":-3.60922,"desc":"Campsite.","_score":4,"url":"https://www.thethreegoldencups.co.uk"},{"name":"Brecon Beacons Wild Camping","lat":51.91247,"lng":-3.50537,"desc":"Campsite.","_score":4,"url":"https://www.breconbeaconswildcamping.co.uk/"},{"name":"Lloyds Meadow Glamping","lat":53.22975,"lng":-2.7306,"desc":"Campsite.","_score":4,"url":"https://www.lloydsmeadowglamping.co.uk/"},{"name":"Insh Scout Campsite","lat":56.88366,"lng":-4.86668,"desc":"Campsite.","_score":4,"url":"https://www.lochaberscouts.co.uk/AboutUs/CampsiteHome"},{"name":"Iron Gorge Camping","lat":52.63712,"lng":-2.49944,"desc":"Wi-Fi.","_score":4,"url":"https://www.irongorgecamping.co.uk/"},{"name":"Waggon & Horses Camping & Caravanning Site","lat":53.3235,"lng":0.11465,"desc":"tents and caravans.","_score":4,"url":"https://waggonandhorsesreston.co.uk/camping/"},{"name":"Hammonds Glamping","lat":51.26913,"lng":-0.46779,"desc":"Campsite.","_score":4,"url":"https://www.hammondsglamping.com/"},{"name":"Camp Wight","lat":50.702,"lng":-1.44269,"desc":"tents welcome.","_score":4,"url":"https://campwight.co.uk/"},{"name":"Bowhayes Farm Sanctuary - Camping & Glamping","lat":50.71352,"lng":-3.30373,"desc":"tents welcome.","_score":4,"url":"https://www.bowhayesfarm.co.uk/"},{"name":"Treglisson campsite","lat":50.18207,"lng":-5.39151,"desc":"Wi-Fi.","_score":4,"url":"https://treglisson.co.uk/"},{"name":"West End Farm","lat":53.33624,"lng":0.12574,"desc":"tents and caravans.","_score":4,"url":"https://www.westendfarmpark.co.uk/"},{"name":"Forest Glen Holiday Park","lat":57.21298,"lng":-4.61987,"desc":"Campsite.","_score":4,"url":"https://www.forestglen.co.uk/"},{"name":"Woodhouse Park Activity Centre","lat":51.56567,"lng":-2.55589,"desc":"Campsite.","_score":4,"url":"https://www.woodhousepark.org.uk"},{"name":"Rough Close Scout Camp","lat":52.40576,"lng":-1.60765,"desc":"Wi-Fi.","_score":4,"url":"http://www.roughclose.org.uk/"},{"name":"Edinburgh Caravan Club","lat":55.97718,"lng":-3.26508,"desc":"tents and caravans.","_score":4,"url":"https://www.caravanclub.co.uk/club-sites/scotland/edinburgh/edinburgh-club-campsite/"},{"name":"Mortonhall Caravan and Camping Park","lat":55.90473,"lng":-3.17942,"desc":"tents and caravans, electric hookup, showers.","_score":4,"url":"https://www.meadowhead.co.uk/Mortonhall-Home"},{"name":"SCA Grandtully","lat":56.65701,"lng":-3.77242,"desc":"tents welcome.","_score":4,"url":"https://www.grandtully.scot/"},{"name":"Grandtully Station Campsite","lat":56.65648,"lng":-3.7743,"desc":"Campsite.","_score":4,"url":"https://www.grandtully.scot/"},{"name":"Domaine de Drancourt","lat":50.15098,"lng":1.63402,"desc":"tents and caravans, showers.","_score":4,"url":"https://www.chateau-drancourt.fr/"},{"name":"St Neots Camping and Caravanning Club","lat":52.21978,"lng":-0.27642,"desc":"tents and caravans, Wi-Fi.","_score":4,"url":"https://www.campingandcaravanningclub.co.uk/campsites/uk/cambridgeshire/st-neots/st-neots-camping-and-caravanning-club-site/"},{"name":"Camping Field","lat":51.16586,"lng":-4.66657,"desc":"40 pitches.","_score":4,"url":"https://www.landmarktrust.org.uk/search-and-book/properties/camping-5274/#Overview"},{"name":"Brightlingsea Touring Park","lat":51.80842,"lng":1.02027,"desc":"showers.","_score":4,"url":"https://www.pitchup.com/campsites/England/South_East/Essex/Colchester/brightlingsea-touring-park/"},{"name":"Caister-on-Sea Haven Holiday Park","lat":52.65738,"lng":1.72591,"desc":"Campsite.","_score":4,"url":"https://www.haven.com/parks/norfolk/caister-on-sea"},{"name":"Teign Valley Barley Meadow","lat":50.71683,"lng":-3.7813,"desc":"60 pitches, electric hookup, Wi-Fi.","_score":4,"url":"https://www.barleymeadowcamping.com/"},{"name":"Camping Municipal l'Olympic","lat":50.76071,"lng":1.60839,"desc":"tents and caravans.","_score":4,"url":"https://www.camping-wimereux.fr"},{"name":"Camping du Baillons","lat":50.58495,"lng":1.8249,"desc":"tents and caravans, showers.","_score":4,"url":"https://campingdubaillons.com/"},{"name":"Camping-caravaning Municipal de la Source","lat":50.41774,"lng":1.91203,"desc":"116 pitches, tents and caravans, Wi-Fi.","_score":4,"url":"https://www.campingdelasource-beaurainville.fr/"},{"name":"Ardmair Point Touring Park","lat":57.93514,"lng":-5.19634,"desc":"tents and caravans, Wi-Fi.","_score":4,"url":"https://www.ardmair.com/"},{"name":"Les Voiles des 2 Caps","lat":50.88196,"lng":1.70817,"desc":"tents and caravans.","_score":4,"url":"https://www.lesvoilesdes2caps.fr"},{"name":"Camping municipal Les Vignettes","lat":49.05114,"lng":-1.45867,"desc":"Wi-Fi.","_score":4,"url":"https://www.coutances.fr/camping/"},{"name":"Camping de Renéville","lat":49.75609,"lng":0.35971,"desc":"tents and caravans, electric hookup, showers.","_score":4,"url":"https://www.campingdereneville.com"},{"name":"Stonehenge Touring Park","lat":51.20756,"lng":-1.91485,"desc":"Campsite.","_score":4,"url":"https://www.stonehengetouringpark.com/"},{"name":"Three Cliffs Bay Holiday Park","lat":51.5772,"lng":-4.11308,"desc":"tents and caravans.","_score":4,"url":"https://threecliffsbay.com/"},{"name":"Upper Booth Farm Campsite","lat":53.36606,"lng":-1.84655,"desc":"40 pitches, showers.","_score":4,"url":"https://www.nationaltrust.org.uk/holidays/upper-booth-farm-campsite"},{"name":"Lough Ree East Caravan and Camping","lat":53.44858,"lng":-7.89143,"desc":"tents and caravans, electric hookup, showers.","_score":4,"url":"https://loughreeeast.wixsite.com/loughreeeast/"},{"name":"Chantry Wood Campsite","lat":51.22374,"lng":-0.54281,"desc":"100 pitches.","_score":4,"url":"https://www.guildford.gov.uk/chantrywoodcampsite"},{"name":"The Apple Farm","lat":52.37895,"lng":-7.84071,"desc":"tents and caravans, electric hookup, showers.","_score":4,"url":"https://www.theapplefarm.com/"},{"name":"Les Mouettes","lat":49.87494,"lng":0.80264,"desc":"Campsite.","_score":4,"url":"https://vacances-seasonova.com/fr/camping/camping-les-mouettes/"},{"name":"Camping Muncipal Saint-Paul","lat":49.40304,"lng":1.48181,"desc":"tents and caravans, electric hookup, Wi-Fi, showers.","_score":4,"url":"https://www.campingsaintpaul.fr/"},{"name":"Glenmore Camp Site","lat":57.16579,"lng":-3.69594,"desc":"tents and caravans.","_score":4,"url":"https://www.campingintheforest.co.uk/scotland/aviemore/glenmore-campsite"},{"name":"Phasels Wood Activity Centre","lat":51.72836,"lng":-0.47993,"desc":"Campsite.","_score":4,"url":"https://www.phaselswood.org.uk/"},{"name":"Le Mesnil","lat":49.88394,"lng":0.85163,"desc":"Campsite.","_score":4,"url":"https://www.campinglemesnil.com"},{"name":"Camping des Groux","lat":49.04582,"lng":1.66352,"desc":"Campsite.","_score":4,"url":"https://www.campingdesgroux.com"},{"name":"Camping le Criquet","lat":49.05732,"lng":1.61433,"desc":"tents and caravans, showers.","_score":4,"url":"http://www.camping-le-criquet.fr/"},{"name":"Strangers Holiday Park","lat":51.93445,"lng":1.11625,"desc":"tents and caravans, showers.","_score":4,"url":"https://strangersholidaypark.co.uk"},{"name":"Port Mòr Campsite","lat":55.73347,"lng":-6.3855,"desc":"tents and caravans, electric hookup, Wi-Fi, showers.","_score":4,"url":"http://islandofislay.co.uk/campsite.php"},{"name":"The Beeches","lat":56.4239,"lng":-2.88675,"desc":"tents and caravans.","_score":4,"url":"https://thebeechescaravansite.co.uk"},{"name":"Gwersyll yr Urdd","lat":52.16565,"lng":-4.44824,"desc":"Campsite.","_score":4,"url":"https://www.urdd.cymru/en/residential-centres/llangrannog/"},{"name":"Camping municipal du Musée","lat":50.84259,"lng":1.60072,"desc":"161 pitches, tents and caravans.","_score":4,"url":"http://campings.audinghen-capgrisnez.fr/"},{"name":"Les Épinettes","lat":50.91146,"lng":1.75258,"desc":"96 pitches, tents welcome.","_score":4,"url":"https://www.lesepinettes.fr/"},{"name":"Camping des Forges","lat":49.53087,"lng":0.49786,"desc":"Campsite.","_score":4,"url":"https://www.normandie-tourisme.fr/camping/camping-les-forges"},{"name":"La Pommeraie","lat":49.28149,"lng":-0.13703,"desc":"tents and caravans.","_score":4,"url":"https://www.camping-cabourg.com"},{"name":"Cwellyn Arms Campsite","lat":53.06522,"lng":-4.14148,"desc":"tents and caravans.","_score":4,"url":"https://www.snowdoninn.co.uk/accommodation/campsite/"},{"name":"Camping le Lieu Castel","lat":49.30342,"lng":-0.04003,"desc":"tents and caravans.","_score":4,"url":"https://www.camping-le-lieu-castel.com/"},{"name":"Camping Les Falaises","lat":49.3077,"lng":-0.04674,"desc":"Campsite.","_score":4,"url":"https://www.camping-les-falaises.fr"},{"name":"Bellevue ****","lat":49.30985,"lng":-0.01745,"desc":"Campsite.","_score":4,"url":"https://www.camping-bellevue.com/"},{"name":"Le Cottage Fleuri","lat":49.28006,"lng":-0.16584,"desc":"159 pitches.","_score":4,"url":"https://cottagefleuri.wixsite.com/e-cottage-fleuri"},{"name":"La Ferme de Mayocq","lat":50.23582,"lng":1.62864,"desc":"tents and caravans, showers.","_score":4,"url":"https://www.la-ferme-de-mayocq.com/"},{"name":"Caravaning Château-Gaillard","lat":49.22879,"lng":1.33089,"desc":"tents welcome, Wi-Fi.","_score":4,"url":"https://www.caravaningchateaugaillard.com"},{"name":"Jubilee Park","lat":53.15616,"lng":-0.22361,"desc":"tents and caravans, showers.","_score":4,"url":"https://www.jubileeparkwoodhallspa.co.uk/caravans-camping"},{"name":"Treago Farm","lat":50.3991,"lng":-5.12212,"desc":"tents and caravans, electric hookup, showers.","_score":4,"url":"http://www.treagofarm.co.uk/"},{"name":"Lochside Caravan and Camping Site","lat":54.9363,"lng":-3.92841,"desc":"tents and caravans, electric hookup.","_score":4,"url":"https://www.dumgal.gov.uk/lochsidecs"},{"name":"Homing Park","lat":51.34081,"lng":1.00429,"desc":"tents and caravans.","_score":4,"url":"http://www.homingpark.co.uk/"},{"name":"Fieldhead Campsite","lat":53.36765,"lng":-1.81476,"desc":"showers.","_score":4,"url":"https://www.fieldhead-campsite.co.uk/"},{"name":"Newfold Farm Campsite","lat":53.36959,"lng":-1.81912,"desc":"tents and caravans.","_score":4,"url":"https://www.newfoldfarmedale.com"},{"name":"Beachside Holiday Park","lat":50.20193,"lng":-5.41403,"desc":"tents and caravans, electric hookup, Wi-Fi, showers.","_score":4,"url":"https://www.beachside.co.uk/"},{"name":"Les Ajoncs","lat":50.82047,"lng":1.59974,"desc":"tents and caravans.","_score":4,"url":"https://camping-ajoncs.fr/"},{"name":"Shieling Holidays","lat":56.4684,"lng":-5.6969,"desc":"tents and caravans, Wi-Fi.","_score":4,"url":"https://shielingholidays.co.uk/"},{"name":"Dalraddy Holiday Park","lat":57.14702,"lng":-3.89418,"desc":"tents and caravans, electric hookup.","_score":4,"url":"https://www.campinginaviemore.co.uk/"},{"name":"Grange Farm Campsite","lat":51.85198,"lng":1.15786,"desc":"tents and caravans, showers.","_score":4,"url":"https://www.grangefarmcampsite.co.uk"},{"name":"Fishery Creek","lat":50.7832,"lng":-0.9576,"desc":"tents and caravans, showers.","_score":4,"url":"https://www.fisherycreekpark.co.uk"},{"name":"La Blanche Nef","lat":49.67554,"lng":-1.26726,"desc":"tents and caravans, electric hookup, showers.","_score":4,"url":"https://camping.barfleur.fr"},{"name":"Budle Bay Campsite","lat":55.59989,"lng":-1.7698,"desc":"Campsite.","_score":4,"url":"https://budlebaycampsite.com/"},{"name":"Merrylands Eco Campsite","lat":50.90867,"lng":0.21385,"desc":"Campsite.","_score":4,"url":"http://www.ukcampsite.co.uk/sites/details.asp?revid=8027"},{"name":"Le Walric","lat":50.18207,"lng":1.61607,"desc":"tents and caravans, showers.","_score":4,"url":"https://www.campinglewalric.com/"},{"name":"Pencelli Castle","lat":51.91327,"lng":-3.31468,"desc":"tents welcome, Wi-Fi, showers.","_score":4,"url":"https://www.pencelli-castle.com/"},{"name":"Priory Mill Farm","lat":51.9564,"lng":-3.3857,"desc":"tents welcome.","_score":4,"url":"https://www.priorymillfarm.co.uk/"},{"name":"Woodlands Touring Park","lat":52.37881,"lng":-3.84247,"desc":"tents and caravans, showers.","_score":4,"url":"http://woodlandsdevilsbridge.co.uk/camping-touring/"},{"name":"Wern Isaf Campsite","lat":52.97396,"lng":-3.15819,"desc":"tents and caravans.","_score":4,"url":"http://www.wernisaf.co.uk/"},{"name":"Abbey Farm","lat":52.98912,"lng":-3.18715,"desc":"tents and caravans.","_score":4,"url":"https://www.theabbeyfarm.co.uk/"},{"name":"Skreens Park Activity Centre","lat":51.74617,"lng":0.35539,"desc":"Wi-Fi.","_score":4,"url":"https://www.skreenspark.org.uk/"},{"name":"South London Scout Centre","lat":51.43747,"lng":-0.07246,"desc":"tents and caravans, showers.","_score":4,"url":"https://southlondonscouts.org.uk/fort-where-it-all-happens"},{"name":"Goldstone Camping","lat":51.30332,"lng":1.29274,"desc":"tents and caravans.","_score":4,"url":"https://goldstonecamping.co.uk/"},{"name":"Folkstone Camping and Caravan Club Site","lat":51.09323,"lng":1.20607,"desc":"tents welcome, electric hookup, Wi-Fi, showers.","_score":4,"url":"https://www.campingandcaravanningclub.co.uk/campsites/uk/kent/folkestone/folkestone"},{"name":"Freshwater Beach Holiday Park","lat":50.70614,"lng":-2.73912,"desc":"Campsite.","_score":4,"url":"https://freshwaterbeachholidaypark.co.uk/"},{"name":"Daleacres","lat":51.05806,"lng":1.01327,"desc":"tents and caravans, electric hookup, Wi-Fi, showers.","_score":4,"url":"https://www.caravanclub.co.uk/club-sites/england/south-east-england/kent/daleacres-club-campsite/"},{"name":"East Fleet Farm Touring Park","lat":50.61607,"lng":-2.51136,"desc":"Campsite.","_score":4,"url":"https://www.eastfleet.co.uk/"},{"name":"Bridge Farm","lat":53.20037,"lng":0.30032,"desc":"tents and caravans, showers.","_score":4,"url":"https://www.bridgefarmaddlethorpe.co.uk/"},{"name":"Haut Dick","lat":49.31017,"lng":-1.23712,"desc":"Campsite.","_score":4,"url":"https://www.camping-lehautdick.com/"},{"name":"Le Marais","lat":49.05256,"lng":-1.59232,"desc":"tents and caravans, electric hookup, showers.","_score":4,"url":"https://www.agoncoutainville.fr/p/les-campings-municipaux-le-martinet-et-le-marais/"},{"name":"Le Martinet","lat":49.05051,"lng":-1.59214,"desc":"tents and caravans, electric hookup, showers.","_score":4,"url":"https://www.agoncoutainville.fr/p/les-campings-municipaux-le-martinet-et-le-marais/"},{"name":"Y Garnedd","lat":53.3127,"lng":-4.26091,"desc":"tents and caravans, showers.","_score":4,"url":"http://www.garnedd.com/"},{"name":"Stonehaugh Campsite","lat":55.08145,"lng":-2.32426,"desc":"tents and caravans, showers.","_score":4,"url":"https://www.stonehaughcampsite.com/"},{"name":"Demesne Farm Campsite & Granary Cottage","lat":55.14326,"lng":-2.25269,"desc":"tents welcome.","_score":4,"url":"https://www.demesnefarmcampsite.co.uk/"},{"name":"Aberlady Caravan Park","lat":56.00421,"lng":-2.8513,"desc":"tents and caravans.","_score":4,"url":"https://www.aberladycaravanpark.co.uk/"},{"name":"Camping aux Grands Espaces","lat":49.23803,"lng":-1.6383,"desc":"tents and caravans, electric hookup, showers.","_score":4,"url":"https://www.auxgrandsespaces.com/"},{"name":"Great Langdale Campsite","lat":54.44299,"lng":-3.10011,"desc":"tents and caravans, electric hookup, showers.","_score":4,"url":"https://www.nationaltrust.org.uk/features/great-langdale-campsite"},{"name":"The Three Magpies","lat":51.35767,"lng":-2.07395,"desc":"14 pitches, tents and caravans, showers.","_score":4,"url":"https://www.threemagpies.co.uk/accommodation"},{"name":"Sykeside Camping Site","lat":54.49852,"lng":-2.9252,"desc":"tents and caravans.","_score":4,"url":"https://sykeside.co.uk/"},{"name":"Lickisto Blackhouse Camping","lat":57.8288,"lng":-6.85292,"desc":"tents and caravans.","_score":4,"url":"https://lickistoblackhousecamping.co.uk/"},{"name":"Blue Hills Touring Site","lat":50.32415,"lng":-5.18902,"desc":"tents and caravans, electric hookup, Wi-Fi, showers.","_score":4,"url":"https://bluehillscamping.co.uk/"},{"name":"Camping de l'Été Indien","lat":50.75356,"lng":1.60934,"desc":"Wi-Fi.","_score":4,"url":"https://www.eteindien.eu/"},{"name":"Camping du Lac Terre d'Auge","lat":49.27512,"lng":0.20511,"desc":"tents and caravans.","_score":4,"url":"https://www.terredauge-camping.fr"},{"name":"Waterloo Inn Campsite","lat":53.13285,"lng":-1.7736,"desc":"tents and caravans.","_score":4,"url":"https://www.waterlooinnbiggin.com/camping"},{"name":"Skye Camping And Caravanning Club Site","lat":57.48397,"lng":-6.43468,"desc":"tents and caravans, electric hookup, Wi-Fi, showers.","_score":4,"url":"https://www.campingandcaravanningclub.co.uk/campsites/uk/isle-of-skye/portree/skye-camping-and-caravanning-club-site/"},{"name":"Camping Le Joncal","lat":49.38844,"lng":-1.05275,"desc":"Campsite.","_score":4,"url":"https://www.capfun.com/camping-france-basse_normandie-joncal-FR.html"},{"name":"Camping Le Canada","lat":49.50107,"lng":-1.27537,"desc":"Campsite.","_score":4,"url":"http://campinglecanada.fr/"},{"name":"East Creech Farm Campsite","lat":50.64408,"lng":-2.09865,"desc":"tents and caravans, electric hookup, showers.","_score":4,"url":"https://www.eastcreechfarm.co.uk/"},{"name":"The Malvern","lat":52.06158,"lng":-2.31208,"desc":"tents and caravans, showers.","_score":4,"url":"https://themarlbankinn.co.uk/caravan-site/"},{"name":"Camping Le Rompval","lat":50.07763,"lng":1.41538,"desc":"123 pitches, tents and caravans, Wi-Fi, showers.","_score":4,"url":"https://www.camping-lerompval.com"},{"name":"Camping Les Boucaniers","lat":50.05773,"lng":1.39049,"desc":"172 pitches, tents and caravans, Wi-Fi.","_score":4,"url":"https://www.camping-lesboucaniers.com/"},{"name":"Lakeside Caravan & Camping","lat":54.49652,"lng":-8.17181,"desc":"tents and caravans, Wi-Fi, showers.","_score":4,"url":"https://lakesidecaravanandcamping.com"},{"name":"Woodland Waters","lat":52.98304,"lng":-0.54963,"desc":"Campsite.","_score":4,"url":"https://woodlandwaters.co.uk/"},{"name":"Wolohan's Silver Strand","lat":52.95222,"lng":-6.01575,"desc":"Campsite.","_score":4,"url":"https://www.silverstrand.ie/"},{"name":"Wellhouse Farm Camping site","lat":54.99407,"lng":-1.93315,"desc":"Campsite.","_score":4,"url":"www.wellhousefarm.co.uk"},{"name":"Camping Le Mont Joli-Bois","lat":50.02551,"lng":1.30807,"desc":"Campsite.","_score":4,"url":"https://camping-lemontjolibois.com/"},{"name":"Camping Les Mouettes","lat":50.03033,"lng":1.30723,"desc":"Campsite.","_score":4,"url":"https://camping-lesmouettes.fr/"},{"name":"Paccar Scout Camp","lat":51.60479,"lng":-0.54389,"desc":"Campsite.","_score":4,"url":"https://paccarscoutcamp.org/"},{"name":"Haltwhistle - Camping and Caravanning Club Site","lat":54.95312,"lng":-2.49295,"desc":"tents and caravans, showers.","_score":4,"url":"https://www.campingandcaravanningclub.co.uk/campsites/uk/northumberland/haltwhistle/haltwhistle-camping-and-caravanning-club-site/"},{"name":"Village Club","lat":49.31566,"lng":0.02313,"desc":"Campsite.","_score":4,"url":"http://www.villageclub.fr"},{"name":"Valley Farm Campsite","lat":51.75758,"lng":-1.34301,"desc":"tents and caravans, showers.","_score":4,"url":"https://www.valleyfarmcampsite.com/"},{"name":"Camac Valley Tourist Caravan & Camping Park","lat":53.30571,"lng":-6.4158,"desc":"tents and caravans.","_score":4,"url":"https://www.camacvalley.com/"},{"name":"Le Clos de Balleroy","lat":49.18741,"lng":-0.82595,"desc":"tents and caravans.","_score":4,"url":"https://www.camping-leclosdeballeroy.fr"},{"name":"Risle Seine","lat":49.36624,"lng":0.48639,"desc":"tents and caravans, electric hookup, showers.","_score":4,"url":"https://www.camping-risle-seine.com/"},{"name":"Marshside Scout Camp","lat":51.33028,"lng":1.30282,"desc":"Campsite.","_score":4,"url":"https://www.thanetscouts.org.uk/campsite/"},{"name":"Camping des Capucines","lat":49.23786,"lng":-0.25844,"desc":"212 pitches, tents and caravans, Wi-Fi.","_score":4,"url":"https://campingdescapucines.com"},{"name":"Lochgilphead Caravan Park","lat":56.03794,"lng":-5.43869,"desc":"tents and caravans.","_score":4,"url":"https://www.lochgilpheadcaravanpark.com/"},{"name":"Grantown-on-Spey Caravan Park","lat":57.33543,"lng":-3.61677,"desc":"tents and caravans.","_score":4,"url":"https://www.caravanscotland.com/"},{"name":"Tytandderwen Camping & Caravan Park","lat":52.91375,"lng":-3.5615,"desc":"tents and caravans.","_score":4,"url":"https://www.tytandderwen.com/"},{"name":"Camping du havre de Regnéville","lat":49.00889,"lng":-1.55502,"desc":"tents and caravans.","_score":4,"url":"https://www.campinghavreregneville.fr/tarifs/"},{"name":"Camping Municipal de Long \"La Peupleraie\"","lat":50.0341,"lng":1.98503,"desc":"Wi-Fi.","_score":4,"url":"http://www.long80.com/campingmunicipal.html"},{"name":"Bught Caravan & Campsite","lat":57.46503,"lng":-4.2388,"desc":"tents and caravans, showers.","_score":4,"url":"http://www.invernesscaravanpark.com/"},{"name":"Blackwater Campsite","lat":56.71405,"lng":-4.95969,"desc":"tents welcome.","_score":4,"url":"https://www.blackwaterhostel.co.uk/"},{"name":"La Falaise","lat":50.06971,"lng":1.38905,"desc":"72 pitches, tents and caravans, electric hookup, showers.","_score":4,"url":"https://www.campingdelafalaisemers.fr/"},{"name":"Camping Municipal Les Mielles","lat":49.46465,"lng":-1.82837,"desc":"tents and caravans.","_score":4,"url":"https://www.campinglesmielles-surtainville.fr"},{"name":"Springfield Park","lat":51.70866,"lng":-0.31714,"desc":"tents welcome.","_score":4,"url":"https://springfieldpark.webs.com/"},{"name":"Dennis Cove","lat":50.53173,"lng":-4.93782,"desc":"tents and caravans, showers.","_score":4,"url":"https://www.denniscovecampsite.co.uk/"},{"name":"Camping Municipal La Sinope De Quinéville","lat":49.51757,"lng":-1.28978,"desc":"Campsite.","_score":4,"url":"https://camping-quineville.fr/"},{"name":"Trethem Mill Touring Park","lat":50.19014,"lng":-5.00154,"desc":"tents and caravans, Wi-Fi.","_score":4,"url":"https://www.trethem.com/"},{"name":"Camping la baie des Veys","lat":49.36619,"lng":-1.17772,"desc":"tents and caravans, electric hookup, showers.","_score":4,"url":"https://www.campinglabaiedesveys.com/"},{"name":"Huish Woods","lat":50.99135,"lng":-3.02334,"desc":"Campsite.","_score":4,"url":"https://www.huishwoods.org.uk/"},{"name":"Dartmoor Yurt Holidays","lat":50.53865,"lng":-3.83493,"desc":"Campsite.","_score":4,"url":"https://www.dartmooryurtholidays.co.uk/"},{"name":"Parc résidentiel de la mer","lat":50.58306,"lng":1.5837,"desc":"636 pitches, Wi-Fi.","_score":4,"url":"https://www.campingdelamer.fr/"},{"name":"Camping de la Hêtraie","lat":49.71399,"lng":0.45548,"desc":"121 pitches, tents and caravans, Wi-Fi.","_score":4,"url":"https://campinglahetraie.com/"},{"name":"Camping Municipal** de Saint-Sauveur-Le-Vicomte","lat":49.38783,"lng":-1.52719,"desc":"Campsite.","_score":4,"url":"https://saint-sauveur-le-vicomte.stationverte.com/fr/camping-municipal-de-saint-sauveur-le-vicomte_t10213.html"},{"name":"Highfield Farm Touring Park","lat":52.19512,"lng":0.03651,"desc":"tents and caravans, showers.","_score":4,"url":"https://www.highfieldfarmtouringpark.co.uk/"},{"name":"Sallochy Campsite - Woodland Camping","lat":56.12717,"lng":-4.60751,"desc":"Campsite.","_score":4,"url":"https://www.lochlomond-trossachs.org/things-to-do/camping/find-a-campsite/sallochy-campsite/"},{"name":"Macs Pebyll Hafod Y Llan","lat":53.04157,"lng":-4.04688,"desc":"tents welcome.","_score":4,"url":"https://www.nationaltrust.org.uk/holidays/wales/hafod-y-llan-campsite"},{"name":"Churchtown Farm Caravan & Camping Site","lat":50.22281,"lng":-5.38813,"desc":"tents and caravans.","_score":4,"url":"https://churchtownfarm.org.uk/"},{"name":"Gwithian Farm","lat":50.22092,"lng":-5.38789,"desc":"tents and caravans, Wi-Fi.","_score":4,"url":"https://gwithianfarm.co.uk/"},{"name":"Auchengillan Outdoor Centre","lat":55.99225,"lng":-4.37302,"desc":"Wi-Fi, showers.","_score":4,"url":"https://www.auchengillan.com/"},{"name":"La Bien Assise","lat":50.86502,"lng":1.85669,"desc":"tents and caravans.","_score":4,"url":"https://www.camping-la-bien-assise.com/"},{"name":"Higher Pentreath","lat":50.10738,"lng":-5.39495,"desc":"tents and caravans, showers.","_score":4,"url":"https://www.higherpentreathcampsite.co.uk/"},{"name":"Middlehills Farm","lat":53.11563,"lng":-1.64849,"desc":"tents and caravans, showers.","_score":4,"url":"https://www.campingandcaravanningmatlock.com/"},{"name":"Camping Municipal Le Grand Mail","lat":49.76586,"lng":1.74314,"desc":"35 pitches, tents and caravans, electric hookup, showers.","_score":4,"url":"http://mairieaumale.free.fr/tourisme/hebergements.htm"},{"name":"Runways End Outdoor Centre","lat":51.2646,"lng":-0.76881,"desc":"Campsite.","_score":4,"url":"https://www3.hants.gov.uk/runwaysend.htm"},{"name":"Greenacres Caravan and Touring Park","lat":53.23638,"lng":-0.87911,"desc":"electric hookup, showers.","_score":4,"url":"http://www.greenacres-tuxford.co.uk/"},{"name":"Camping de la mer","lat":50.47225,"lng":1.57856,"desc":"181 pitches, tents and caravans, electric hookup, showers.","_score":4,"url":"https://www.campingstellaplage.fr/"},{"name":"Elsich Barn Campsite","lat":52.45822,"lng":-2.76133,"desc":"tents and caravans, electric hookup.","_score":4,"url":"http://www.elsichbarn.co.uk"},{"name":"Cae Du Campsite","lat":53.01722,"lng":-4.09127,"desc":"tents and caravans, electric hookup.","_score":4,"url":"https://www.caeducampsite.co.uk/"},{"name":"Bainland Country Park","lat":53.15838,"lng":-0.18204,"desc":"Campsite.","_score":4,"url":"https://www.bainland.co.uk/"},{"name":"Les Vertes Feuilles","lat":50.31856,"lng":1.60671,"desc":"tents and caravans, showers.","_score":4,"url":"https://www.lesvertesfeuilles.com/"},{"name":"Camping de la Motte","lat":50.30926,"lng":1.60438,"desc":"tents and caravans.","_score":4,"url":"https://www.campingdelamotte.org"},{"name":"Le Tarteron","lat":50.23083,"lng":1.64,"desc":"tents and caravans, showers.","_score":4,"url":"https://www.letarteron.fr/"},{"name":"Camping de la Prairie","lat":50.22227,"lng":1.61976,"desc":"152 pitches.","_score":4,"url":"https://www.camping-laprairie.fr/"},{"name":"Southwold Camping and Caravan Site","lat":52.31661,"lng":1.67241,"desc":"tents and caravans.","_score":4,"url":"https://southwoldcamping.com/"},{"name":"Vitamin'","lat":49.90042,"lng":1.07248,"desc":"Wi-Fi.","_score":4,"url":"https://www.camping-vitamin.com"},{"name":"Blair Castle Caravan Park","lat":56.76988,"lng":-3.84602,"desc":"tents welcome, electric hookup, Wi-Fi.","_score":4,"url":"http://www.blaircastlecaravanpark.co.uk/"},{"name":"Domaine de la Catinière","lat":49.40166,"lng":0.30441,"desc":"tents and caravans.","_score":4,"url":"https://www.camping-honfleur.com"},{"name":"Le Grand Hameau","lat":49.63036,"lng":0.15821,"desc":"Campsite.","_score":4,"url":"https://www.camping-le-grand-hameau.fr"},{"name":"GCU Oye-Plage","lat":50.99296,"lng":1.99988,"desc":"33 pitches.","_score":4,"url":"https://www.gcu.asso.fr/terrains/oye-plage-pas-de-calais-62"},{"name":"Lee Valley Campsite, Sewardstone","lat":51.65517,"lng":-0.00816,"desc":"electric hookup.","_score":4,"url":"https://www.visitleevalley.org.uk/lee-valley-campsite-sewardstone"},{"name":"Walkmill Campsite","lat":55.33313,"lng":-1.64069,"desc":"tents and caravans, electric hookup, showers.","_score":4,"url":"http://www.walkmillcampsite.co.uk"},{"name":"Camping Canadian Scottish","lat":49.33813,"lng":-0.479,"desc":"tents and caravans.","_score":4,"url":"https://campingsitecanadianscottishgb.jimdo.com"},{"name":"Les Cottages de Collignon","lat":49.6526,"lng":-1.56077,"desc":"Campsite.","_score":4,"url":"https://www.camping-cotentin.fr/"},{"name":"Camping La Vieille Eglise","lat":50.16956,"lng":1.49782,"desc":"348 pitches, Wi-Fi.","_score":4,"url":"https://www.camping-vieille-eglise.fr/"},{"name":"Camping Municipal La Cavée verte","lat":50.08937,"lng":1.44819,"desc":"101 pitches, tents and caravans, Wi-Fi.","_score":4,"url":"https://www.campinglacaveeverte.fr/"},{"name":"Camping de la Maye","lat":50.27514,"lng":1.66283,"desc":"tents and caravans, Wi-Fi.","_score":4,"url":"https://www.campingdelamaye.net/"},{"name":"La maison du campeur","lat":49.84894,"lng":0.59688,"desc":"tents and caravans.","_score":4,"url":"https://www.seine-maritime-tourisme.com/diffusio/fr/je-choisis/un-hebergement/campings/veulettes-sur-mer/camping-municipal-la-maison-du-campeur_TFOHPANOR076FS0004T.php"},{"name":"Tan-aeldroch - Camp Snowdonia","lat":53.06787,"lng":-3.83188,"desc":"tents welcome.","_score":4,"url":"https://tanaeldroch.weebly.com"},{"name":"Garth Farm","lat":53.09513,"lng":-3.94105,"desc":"tents and caravans, showers.","_score":4,"url":"https://www.garthfarmcampsite.co.uk/"},{"name":"Les Salines","lat":49.28881,"lng":-0.28204,"desc":"tents and caravans.","_score":4,"url":"https://camping-lessalines-normandie.com"},{"name":"Camping Municipal \"De La Source\"","lat":50.88159,"lng":1.65518,"desc":"391 pitches, tents and caravans, electric hookup, showers.","_score":4,"url":"https://www.ville-wissant.fr/15-camping-municipal-de-la-source.html"},{"name":"Chapel House Farm Campsite","lat":54.51565,"lng":-3.14937,"desc":"showers.","_score":4,"url":"https://www.chapelhousefarmcampsite.co.uk/"},{"name":"Balinoe Campsite","lat":56.47771,"lng":-6.92166,"desc":"tents and caravans, electric hookup, Wi-Fi.","_score":4,"url":"https://tireecampsite.co.uk/"},{"name":"Pitchperfect","lat":51.27731,"lng":-2.30414,"desc":"tents welcome.","_score":4,"url":"https://pitchperfectcamping.co.uk/"},{"name":"Greensprings Touring Park","lat":53.51287,"lng":-1.50282,"desc":"tents and caravans.","_score":4,"url":"https://www.ukparks.com/park_details_top.asp?parkid=2822"},{"name":"Domaine de la Pinède en Baie de Canche","lat":50.53278,"lng":1.62432,"desc":"tents and caravans.","_score":4,"url":"https://www.domainelapinede.fr"},{"name":"Glen of Aherlow Caravan & Camping Park","lat":52.42067,"lng":-8.18806,"desc":"tents and caravans, electric hookup, Wi-Fi.","_score":4,"url":"https://tipperarycamping.com/"},{"name":"Camping le Village de la Vache Verte","lat":50.36163,"lng":1.67085,"desc":"762 pitches.","_score":4,"url":"https://www.villagedelavacheverte.fr/"},{"name":"Camping Pommiers des Trois Pays ****","lat":50.78027,"lng":1.94913,"desc":"Wi-Fi.","_score":4,"url":"https://www.pommiers-3pays.com/"},{"name":"Llwyn Griffri Farm","lat":52.7737,"lng":-4.08732,"desc":"tents and caravans, electric hookup, showers.","_score":4,"url":"https://www.llwyngriffrifarm.co.uk/"},{"name":"Camping Caravaning Les Cerisiers","lat":50.40771,"lng":1.6286,"desc":"148 pitches, Wi-Fi.","_score":4,"url":"https://www.caravaninglescerisiers.com/"},{"name":"Hendre Mynach Caravan Park","lat":52.732,"lng":-4.06694,"desc":"tents welcome, electric hookup, Wi-Fi.","_score":4,"url":"https://www.hendremynach.co.uk/"},{"name":"Fron Farm Caravan and Camping Park","lat":53.20827,"lng":-3.21531,"desc":"Wi-Fi.","_score":4,"url":"https://fronfarmcaravanpark.co.uk/"},{"name":"Whitlingham Broad Campsite","lat":52.61952,"lng":1.33029,"desc":"Campsite.","_score":4,"url":"https://www.whitlinghambroadcampsite.com/"},{"name":"The Hollies","lat":52.43105,"lng":1.72421,"desc":"tents and caravans, showers.","_score":4,"url":"https://www.thehollieskessingland.co.uk/"},{"name":"Eweleaze Farm","lat":50.63851,"lng":-2.40451,"desc":"tents welcome, showers.","_score":4,"url":"https://eweleaze.co.uk/eweleaze-farm"},{"name":"The Yurt Retreat","lat":50.89426,"lng":-2.82052,"desc":"Campsite.","_score":4,"url":"https://www.theyurtretreat.co.uk/"},{"name":"Norwood Farm Campsite","lat":51.03781,"lng":0.91917,"desc":"tents and caravans, electric hookup.","_score":4,"url":"http://norwoodfarmnewchurch.co.uk/"},{"name":"Cleethorpes Showground Caravan Park (Camping)","lat":53.54386,"lng":-0.00702,"desc":"Campsite.","_score":4,"url":"https://www.cleethorpescamping.co.uk"},{"name":"Lyndon Top","lat":52.63787,"lng":-0.67382,"desc":"tents and caravans, showers.","_score":4,"url":"https://www.lyndontop.com/"},{"name":"Invercoe Caravan & Camping Park","lat":56.68745,"lng":-5.10644,"desc":"tents and caravans.","_score":4,"url":"https://www.invercoe.co.uk/"},{"name":"West Runton","lat":52.9303,"lng":1.25594,"desc":"tents welcome, showers.","_score":4,"url":"https://www.campingandcaravanningclub.co.uk/campsites/uk/norfolk/cromer/west-runton-camping-and-caravanning-club-site/"},{"name":"Seatoller Farm","lat":54.51121,"lng":-3.16784,"desc":"tents welcome.","_score":4,"url":"https://seatollerfarm.co.uk/campsite/"},{"name":"Castle Inn and Camping Site","lat":51.92886,"lng":1.21557,"desc":"tents welcome, showers.","_score":4,"url":"https://www.castleinnramsey.co.uk"},{"name":"Pencarnan Farm Caravan & Camping Site","lat":51.88486,"lng":-5.30502,"desc":"tents and caravans, electric hookup, Wi-Fi, showers.","_score":4,"url":"https://pencarnanfarm.co.uk/"},{"name":"Cherry Tree Farm Campsite","lat":51.13676,"lng":-4.23023,"desc":"tents welcome, showers.","_score":4,"url":"https://www.cherrytreecampingcroyde.co.uk/"},{"name":"Farningham Wood Scout Campsite","lat":51.3921,"lng":0.20789,"desc":"tents welcome.","_score":4,"url":"http://www.swanleyscouts.org.uk/page-campsite.html"},{"name":"Les terrasses","lat":49.3231,"lng":1.14722,"desc":"Campsite.","_score":4,"url":"https://www.rouentourisme.com/campings-camping-cars/camping-les-terrasses-185"},{"name":"Lower Micklin Farm","lat":52.96926,"lng":-1.87918,"desc":"Campsite.","_score":4,"url":"https://www.lowermicklinfarm.co.uk/"},{"name":"Motocamp Wales","lat":52.75039,"lng":-3.89675,"desc":"tents and caravans.","_score":4,"url":"https://www.motocampwales.co.uk/"},{"name":"Setmabanning Caravan Park","lat":54.61294,"lng":-3.05161,"desc":"tents and caravans.","_score":4,"url":"https://www.setmabanningcaravanpark.co.uk"},{"name":"Parc Wernol","lat":52.92538,"lng":-4.31501,"desc":"Campsite.","_score":4,"url":"https://www.wernol.co.uk/"},{"name":"Clos Cacheleux","lat":50.08688,"lng":1.71248,"desc":"tents and caravans, showers.","_score":4,"url":"https://camping-lecloscacheleux.fr"},{"name":"Camping Au Vieux Moulin","lat":49.5749,"lng":1.94032,"desc":"tents and caravans, showers.","_score":4,"url":"https://pausevieuxmoulin.com/"},{"name":"Camping Le Beaucamp","lat":50.81852,"lng":1.63536,"desc":"tents and caravans.","_score":4,"url":"https://www.camping-lebeaucamp.fr/"},{"name":"Hooks House Farm Camping","lat":54.43822,"lng":-0.54346,"desc":"tents and caravans, electric hookup.","_score":4,"url":"https://www.hookshousefarm.co.uk/"},{"name":"Mousley House Farm Campsite","lat":52.32368,"lng":-1.68221,"desc":"tents and caravans.","_score":4,"url":"https://www.mousleyhousefarmcampsite.co.uk/"},{"name":"Camping Barre y va","lat":49.52215,"lng":0.70327,"desc":"Campsite.","_score":4,"url":"https://www.camping-barre-y-va.com"},{"name":"Martleaves Farm Campsite","lat":50.5904,"lng":-2.48017,"desc":"40 pitches, tents welcome, showers.","_score":4,"url":"https://www.weymouthcampingandcaravanpark.co.uk/"},{"name":"Dwyros","lat":52.80649,"lng":-4.71976,"desc":"tents and caravans, showers.","_score":4,"url":"https://www.dwyros.co.uk/"},{"name":"Cherry Tree Glamping","lat":51.78637,"lng":-2.15221,"desc":"Campsite.","_score":4,"url":"https://www.cherrytreeglamping.co.uk/"},{"name":"Torridon Camp Site","lat":57.54355,"lng":-5.50178,"desc":"tents welcome, showers.","_score":4,"url":"https://www.highland.gov.uk/info/379/countryside_facilities_and_wildlife/44/our_camping_sites/2"},{"name":"Le Rivage","lat":49.57928,"lng":-1.3048,"desc":"Campsite.","_score":4,"url":"https://www.camping-lerivage.fr/"},{"name":"Le Brévedent","lat":49.22604,"lng":0.30462,"desc":"tents and caravans.","_score":4,"url":"https://www.campinglebrevedent.com/"},{"name":"The Camping & Caravanning Club Lynton.","lat":51.21759,"lng":-3.85794,"desc":"tents and caravans.","_score":4,"url":"https://www.campingandcaravanningclub.co.uk/campsites/uk/devon/lynton/lynton-camping-and-caravanning-club-site"},{"name":"Highwood Camping","lat":50.67473,"lng":-2.1843,"desc":"tents welcome.","_score":4,"url":"http://www.highwoodcamping.co.uk/"},{"name":"Folly Farm Camping","lat":51.88466,"lng":-1.82337,"desc":"tents and caravans.","_score":4,"url":"https://www.cotswoldcamping.net/"},{"name":"Bury View Farm","lat":51.37781,"lng":-2.47391,"desc":"tents and caravans.","_score":4,"url":"http://www.buryviewfarm.co.uk"},{"name":"Domaine de l'Abri Côtier","lat":50.47753,"lng":1.60662,"desc":"110 pitches, Wi-Fi.","_score":4,"url":"https://www.camping-stella-plage.com/"},{"name":"La Berquerie","lat":49.98028,"lng":1.44807,"desc":"90 pitches, tents and caravans.","_score":4,"url":"https://camping-la-berquerie.fr"},{"name":"Thorpe Farm Centre Campsite","lat":54.5128,"lng":-1.85762,"desc":"124 pitches, tents welcome.","_score":4,"url":"https://www.thorpefarm.co.uk/"},{"name":"Streethead Caravan Park","lat":54.27021,"lng":-2.00291,"desc":"tents and caravans, showers.","_score":4,"url":"https://www.streetheadcaravanpark.co.uk/"},{"name":"Le Clair Vignon","lat":50.43307,"lng":1.87553,"desc":"84 pitches, tents welcome.","_score":4,"url":"https://leclairvignon.com/"},{"name":"Camping du Halloy","lat":50.39692,"lng":1.56755,"desc":"tents and caravans.","_score":4,"url":"https://www.campingduhalloy.fr/"},{"name":"North Lees Campsite","lat":53.34517,"lng":-1.64793,"desc":"tents welcome, showers.","_score":4,"url":"https://www.peakdistrict.gov.uk/visiting/getactive/camping/camping-northlees"},{"name":"Le Marqueval","lat":49.90934,"lng":1.04156,"desc":"Campsite.","_score":4,"url":"https://www.campinglemarqueval.com"},{"name":"La Source","lat":49.89966,"lng":1.05592,"desc":"120 pitches.","_score":4,"url":"https://camping-la-source.fr"},{"name":"Camping Le Ridin","lat":50.23832,"lng":1.63179,"desc":"tents and caravans, showers.","_score":4,"url":"https://www.campingleridin.com/"},{"name":"La Ferme des Aulnes","lat":50.33611,"lng":1.71152,"desc":"Campsite.","_score":4,"url":"https://www.fermedesaulnes.com/"},{"name":"Secret Valley","lat":51.10314,"lng":-3.08051,"desc":"tents and caravans, electric hookup, showers.","_score":4,"url":"https://www.secret-valley.co.uk/"},{"name":"Wimbleball Campsite","lat":51.0663,"lng":-3.478,"desc":"tents and caravans, showers.","_score":4,"url":"https://www.swlakestrust.org.uk/wimbleball-campsite"},{"name":"Glencoe Mountain Resort","lat":56.63253,"lng":-4.82707,"desc":"tents welcome, Wi-Fi, showers.","_score":4,"url":"https://www.glencoemountain.co.uk/accommodation/"},{"name":"Kielder Campsite","lat":55.23725,"lng":-2.58615,"desc":"tents and caravans.","_score":4,"url":"https://www.kieldercampsite.co.uk/"},{"name":"Bellingham Camping & Caravaning Club Site","lat":55.13707,"lng":-2.2602,"desc":"Campsite.","_score":4,"url":"https://www.campingandcaravanningclub.co.uk/campsites/uk/northumberland/hexham/bellingham"},{"name":"Les 2 Plages","lat":50.32278,"lng":1.62296,"desc":"tents and caravans.","_score":4,"url":"https://www.camping2plages.com"},{"name":"Beinglas Farm","lat":56.33043,"lng":-4.71747,"desc":"tents and caravans, electric hookup, showers.","_score":4,"url":"http://www.beinglascampsite.co.uk/"},{"name":"Wyming Brook Farm Certificated Site","lat":53.36776,"lng":-1.59546,"desc":"tents and caravans.","_score":4,"url":"https://wymingbrookfarmcaravanandcampsite.co.uk/"},{"name":"Beadnell Bay","lat":55.56055,"lng":-1.63693,"desc":"tents and caravans.","_score":4,"url":"https://www.campingandcaravanningclub.co.uk/campsites/uk/northumberland/chathill/beadnell-bay-camping-and-caravanning-club-site/"},{"name":"Camping la Guinguette","lat":50.39793,"lng":1.56925,"desc":"94 pitches, tents and caravans.","_score":4,"url":"https://www.camping-laguinguette.com"},{"name":"Low Wray campsite","lat":54.40564,"lng":-2.97133,"desc":"Campsite.","_score":4,"url":"https://www.nationaltrust.org.uk/holidays/low-wray-campsite-lake-district"},{"name":"Hawkshead Hall Camping & Caravan Site","lat":54.38112,"lng":-3.0009,"desc":"tents and caravans.","_score":4,"url":"http://www.hawksheadhall-campsite.co.uk/"},{"name":"Manor Farm Campsite","lat":52.92836,"lng":1.27857,"desc":"showers.","_score":4,"url":"https://www.manorfarmcampsite.co.uk/"},{"name":"Laurel Park Caravan & Camp Site","lat":52.77851,"lng":0.08042,"desc":"tents and caravans.","_score":4,"url":"https://www.laurelparkcampsite.co.uk/"},{"name":"Croft 183","lat":56.98539,"lng":-7.41199,"desc":"Campsite.","_score":4,"url":"http://www.croft183.com/"},{"name":"Le Val Boisé","lat":49.96119,"lng":1.19392,"desc":"tents and caravans.","_score":4,"url":"https://camping-levalboise.fr"},{"name":"Camping La Forêt","lat":50.47402,"lng":1.5906,"desc":"154 pitches.","_score":4,"url":"https://www.camping-touquet-parisplage.fr/"},{"name":"Domaine du Blanc Pignon","lat":50.47136,"lng":1.73928,"desc":"101 pitches, tents welcome.","_score":4,"url":"https://www.domainedublancpignon.com/"},{"name":"Les Tourterelles","lat":50.43007,"lng":1.63582,"desc":"Campsite.","_score":4,"url":"https://camping-lestourterelles.com/"},{"name":"Camping Manon des Sources","lat":50.44172,"lng":1.87431,"desc":"50 pitches.","_score":4,"url":"https://www.valleesdopale.com/fr/offre-touristique/12734-camping-manon-sources/"},{"name":"Le Blanc-Nez","lat":50.91908,"lng":1.71089,"desc":"84 pitches, tents and caravans.","_score":4,"url":"https://www.camping-blancnez.fr"},{"name":"Wardley Hill Campsite","lat":52.48525,"lng":1.48041,"desc":"50 pitches.","_score":4,"url":"https://www.wardleyhillcampsite.com/"},{"name":"Les Aubépines","lat":50.24957,"lng":1.61323,"desc":"Campsite.","_score":4,"url":"https://www.camping-lesaubepines.com/"},{"name":"Camping l’Escale","lat":50.78166,"lng":1.66959,"desc":"tents and caravans.","_score":4,"url":"https://www.escale-camping.fr"},{"name":"Camping Manoir de Senlecques","lat":50.75217,"lng":1.72027,"desc":"Campsite.","_score":4,"url":"https://m.facebook.com/senlecquesisa/"},{"name":"Blackthorn Farm Campsite","lat":53.29219,"lng":-4.66373,"desc":"showers.","_score":4,"url":"https://blackthornfarm.co.uk/"},{"name":"Camping Andresien","lat":50.85807,"lng":1.97539,"desc":"83 pitches, tents welcome.","_score":4,"url":"https://www.campingardresien.com/"},{"name":"Le Fanal","lat":49.32028,"lng":-1.10927,"desc":"Campsite.","_score":4,"url":"https://www.camping-normandie-fanal.fr"},{"name":"La Briquerie","lat":49.39853,"lng":0.20749,"desc":"Wi-Fi.","_score":4,"url":"https://www.campinglabriquerie.com"},{"name":"Napps Holiday Park","lat":51.21005,"lng":-4.06001,"desc":"Campsite.","_score":4,"url":"https://www.napps.co.uk/"},{"name":"Old Barn Touring Park","lat":50.64761,"lng":-1.19326,"desc":"tents welcome, Wi-Fi.","_score":4,"url":"https://oldbarntouring.co.uk/"},{"name":"Masterland Farm","lat":51.7221,"lng":-4.7558,"desc":"tents and caravans, showers.","_score":4,"url":"https://masterlandfarm.com/"},{"name":"Pentre Bach campsite","lat":53.09887,"lng":-4.19632,"desc":"tents welcome, showers.","_score":4,"url":"http://www.pentrebachbunkhouse.co.uk/accommodation/"},{"name":"Cairnryan Heights Holiday Park","lat":54.96374,"lng":-5.01086,"desc":"Campsite.","_score":4,"url":"https://cairnryanheightsholidaypark.com/"},{"name":"Ryanbay Holiday and Residential Park","lat":54.92406,"lng":-4.99084,"desc":"tents and caravans, electric hookup, Wi-Fi, showers.","_score":4,"url":"https://www.hagansleisure.co.uk/ryan-bay-loch-ryan-sw-scotland"},{"name":"Clashwhannon Holiday Park","lat":54.69618,"lng":-4.89984,"desc":"Campsite.","_score":4,"url":"https://clashwhannon.co.uk/"},{"name":"Maryport Holiday Park","lat":54.6707,"lng":-4.88172,"desc":"Campsite.","_score":4,"url":"http://maryportholidaypark.co.uk/"},{"name":"Glencoe Camping & Caravanning Club","lat":56.67289,"lng":-5.08407,"desc":"tents and caravans, showers.","_score":4,"url":"https://www.campingandcaravanningclub.co.uk/campsites/uk/argyll/ballachulish/glencoe"},